[{"uid": 21870, "state": "Burgenland", "substationName": "UW Deutschkreutz", "networkOperator": "Netz Burgenland GmbH", "bookedCapacity": "5", "availableCapacity": 0, "contact": "info@netzburgenland.at, +43 0800 888 9001", "updatedOn": 1759269600, "latitude": 47.59655, "longitude": 16.59746, "website": "https://www.netzburgenland.at/strom/photovoltaik/"}, {"uid": 21871, "state": "Burgenland", "substationName": "UW Eisenstadt**", "networkOperator": "Netz Burgenland GmbH", "bookedCapacity": "13", "availableCapacity": 0, "contact": "info@netzburgenland.at, +43 0800 888 9001", "updatedOn": 1759269600, "latitude": 47.84417, "longitude": 16.5461, "website": "https://www.netzburgenland.at/strom/photovoltaik/"}, {"uid": 21872, "state": "Burgenland", "substationName": "UW Eltendorf", "networkOperator": "Netz Burgenland GmbH", "bookedCapacity": "7", "availableCapacity": "1", "contact": "info@netzburgenland.at, +43 0800 888 9001", "updatedOn": 1759269600, "latitude": 47.01042, "longitude": 16.19146, "website": "https://www.netzburgenland.at/strom/photovoltaik/"}, {"uid": 21873, "state": "Burgenland", "substationName": "UW Frauenkirchen**", "networkOperator": "Netz Burgenland GmbH", "bookedCapacity": "6", "availableCapacity": 0, "contact": "info@netzburgenland.at, +43 0800 888 9001", "updatedOn": 1759269600, "latitude": 47.84467, "longitude": 16.90066, "website": "https://www.netzburgenland.at/strom/photovoltaik/"}, {"uid": 21874, "state": "Burgenland", "substationName": "UW G\u00fcssing", "networkOperator": "Netz Burgenland GmbH", "bookedCapacity": "41", "availableCapacity": "1", "contact": "info@netzburgenland.at, +43 0800 888 9001", "updatedOn": 1759269600, "latitude": 47.07376, "longitude": 16.31765, "website": "https://www.netzburgenland.at/strom/photovoltaik/"}, {"uid": 21875, "state": "Burgenland", "substationName": "UW Jennersdorf", "networkOperator": "Netz Burgenland GmbH", "bookedCapacity": "2", "availableCapacity": "3", "contact": "info@netzburgenland.at, +43 0800 888 9001", "updatedOn": 1759269600, "latitude": 46.92889, "longitude": 16.12809, "website": "https://www.netzburgenland.at/strom/photovoltaik/"}, {"uid": 21876, "state": "Burgenland", "substationName": "UW Markt St. Martin", "networkOperator": "Netz Burgenland GmbH", "bookedCapacity": "5", "availableCapacity": "1", "contact": "info@netzburgenland.at, +43 0800 888 9001", "updatedOn": 1759269600, "latitude": 47.5573, "longitude": 16.41989, "website": "https://www.netzburgenland.at/strom/photovoltaik/"}, {"uid": 21877, "state": "Burgenland", "substationName": "UW Mattersburg", "networkOperator": "Netz Burgenland GmbH", "bookedCapacity": "5", "availableCapacity": 0, "contact": "info@netzburgenland.at, +43 0800 888 9001", "updatedOn": 1759269600, "latitude": 47.72241, "longitude": 16.38294, "website": "https://www.netzburgenland.at/strom/photovoltaik/"}, {"uid": 21878, "state": "Burgenland", "substationName": "UW Neud\u00f6rfl**", "networkOperator": "Netz Burgenland GmbH", "bookedCapacity": "7", "availableCapacity": 0, "contact": "info@netzburgenland.at, +43 0800 888 9001", "updatedOn": 1759269600, "latitude": 47.80162, "longitude": 16.27389, "website": "https://www.netzburgenland.at/strom/photovoltaik/"}, {"uid": 21879, "state": "Burgenland", "substationName": "UW Neusiedl", "networkOperator": "Netz Burgenland GmbH", "bookedCapacity": "27", "availableCapacity": 0, "contact": "info@netzburgenland.at, +43 0800 888 9001", "updatedOn": 1759269600, "latitude": 47.96071, "longitude": 16.8363, "website": "https://www.netzburgenland.at/strom/photovoltaik/"}, {"uid": 21880, "state": "Burgenland", "substationName": "UW Oberpullendorf", "networkOperator": "Netz Burgenland GmbH", "bookedCapacity": "6", "availableCapacity": 0, "contact": "info@netzburgenland.at, +43 0800 888 9001", "updatedOn": 1759269600, "latitude": 47.49493, "longitude": 16.48933, "website": "https://www.netzburgenland.at/strom/photovoltaik/"}, {"uid": 21881, "state": "Burgenland", "substationName": "UW Pama**", "networkOperator": "Netz Burgenland GmbH", "bookedCapacity": "18", "availableCapacity": 0, "contact": "info@netzburgenland.at, +43 0800 888 9001", "updatedOn": 1759269600, "latitude": 48.03926, "longitude": 17.02613, "website": "https://www.netzburgenland.at/strom/photovoltaik/"}, {"uid": 21882, "state": "Burgenland", "substationName": "UW Pinkafeld", "networkOperator": "Netz Burgenland GmbH", "bookedCapacity": "3", "availableCapacity": 0, "contact": "info@netzburgenland.at, +43 0800 888 9001", "updatedOn": 1759269600, "latitude": 47.36144, "longitude": 16.12345, "website": "https://www.netzburgenland.at/strom/photovoltaik/"}, {"uid": 21883, "state": "Burgenland", "substationName": "UW Rotenturm", "networkOperator": "Netz Burgenland GmbH", "bookedCapacity": "16", "availableCapacity": 0, "contact": "info@netzburgenland.at, +43 0800 888 9001", "updatedOn": 1759269600, "latitude": 47.25145, "longitude": 16.27604, "website": "https://www.netzburgenland.at/strom/photovoltaik/"}, {"uid": 21884, "state": "Burgenland", "substationName": "UW Stegersbach", "networkOperator": "Netz Burgenland GmbH", "bookedCapacity": "6", "availableCapacity": "1", "contact": "info@netzburgenland.at, +43 0800 888 9001", "updatedOn": 1759269600, "latitude": 47.17326, "longitude": 16.1829, "website": "https://www.netzburgenland.at/strom/photovoltaik/"}, {"uid": 21885, "state": "Burgenland", "substationName": "UW Steinbrunn**", "networkOperator": "Netz Burgenland GmbH", "bookedCapacity": "3", "availableCapacity": 0, "contact": "info@netzburgenland.at, +43 0800 888 9001", "updatedOn": 1759269600, "latitude": 47.81914, "longitude": 16.43677, "website": "https://www.netzburgenland.at/strom/photovoltaik/"}, {"uid": 21886, "state": "Burgenland", "substationName": "UW Wimpassing**", "networkOperator": "Netz Burgenland GmbH", "bookedCapacity": "3", "availableCapacity": 0, "contact": "info@netzburgenland.at, +43 0800 888 9001", "updatedOn": 1759269600, "latitude": 47.90509, "longitude": 16.45205, "website": "https://www.netzburgenland.at/strom/photovoltaik/"}, {"uid": 21887, "state": "Burgenland", "substationName": "UW Zurndorf*", "networkOperator": "Netz Burgenland GmbH", "bookedCapacity": "8", "availableCapacity": 0, "contact": "info@netzburgenland.at, +43 0800 888 9001", "updatedOn": 1759269600, "latitude": 47.93765, "longitude": 16.99346, "website": "https://www.netzburgenland.at/strom/photovoltaik/"}, {"uid": 21888, "state": "K\u00e4rnten", "substationName": "UW Auen", "networkOperator": "KNG - K\u00e4rnten Netz GmbH", "bookedCapacity": "0,65", "availableCapacity": "34,55", "contact": "kommunikation@kaerntennetz.at, +43 505 25 6000", "updatedOn": 1761778800, "latitude": 46.595263, "longitude": 13.859782, "website": "https://kaerntennetz.at/dokumente/Strom/Veroeffentlichung_der_verfuegbaren_Kapazitaeten_gemaess_20_ElWOG.pdf"}, {"uid": 21889, "state": "K\u00e4rnten", "substationName": "UW Au\u00dferfragant", "networkOperator": "KNG - K\u00e4rnten Netz GmbH", "bookedCapacity": "2,14", "availableCapacity": 0, "contact": "kommunikation@kaerntennetz.at, +43 505 25 6000", "updatedOn": 1761778800, "latitude": 46.934582, "longitude": 13.110602, "website": "https://kaerntennetz.at/dokumente/Strom/Veroeffentlichung_der_verfuegbaren_Kapazitaeten_gemaess_20_ElWOG.pdf"}, {"uid": 21890, "state": "K\u00e4rnten", "substationName": "UW Bleiburg", "networkOperator": "KNG - K\u00e4rnten Netz GmbH", "bookedCapacity": "8,96", "availableCapacity": 0, "contact": "kommunikation@kaerntennetz.at, +43 505 25 6000", "updatedOn": 1761778800, "latitude": 46.628568, "longitude": 14.78507, "website": "https://kaerntennetz.at/dokumente/Strom/Veroeffentlichung_der_verfuegbaren_Kapazitaeten_gemaess_20_ElWOG.pdf"}, {"uid": 21891, "state": "K\u00e4rnten", "substationName": "UW Br\u00fcckl", "networkOperator": "KNG - K\u00e4rnten Netz GmbH", "bookedCapacity": "6,63", "availableCapacity": "37,37", "contact": "kommunikation@kaerntennetz.at, +43 505 25 6000", "updatedOn": 1761778800, "latitude": 46.733716, "longitude": 14.525265, "website": "https://kaerntennetz.at/dokumente/Strom/Veroeffentlichung_der_verfuegbaren_Kapazitaeten_gemaess_20_ElWOG.pdf"}, {"uid": 21892, "state": "K\u00e4rnten", "substationName": "UW Ettendorf", "networkOperator": "KNG - K\u00e4rnten Netz GmbH", "bookedCapacity": 0, "availableCapacity": 0, "contact": "kommunikation@kaerntennetz.at, +43 505 25 6000", "updatedOn": 1761778800, "latitude": 46.673213, "longitude": 14.95704, "website": "https://kaerntennetz.at/dokumente/Strom/Veroeffentlichung_der_verfuegbaren_Kapazitaeten_gemaess_20_ElWOG.pdf"}, {"uid": 21893, "state": "K\u00e4rnten", "substationName": "UW Feldkirchen", "networkOperator": "KNG - K\u00e4rnten Netz GmbH", "bookedCapacity": "2,96", "availableCapacity": "10,79", "contact": "kommunikation@kaerntennetz.at, +43 505 25 6000", "updatedOn": 1761778800, "latitude": 46.719941, "longitude": 14.090979, "website": "https://kaerntennetz.at/dokumente/Strom/Veroeffentlichung_der_verfuegbaren_Kapazitaeten_gemaess_20_ElWOG.pdf"}, {"uid": 21894, "state": "K\u00e4rnten", "substationName": "UW Ferlach", "networkOperator": "KNG - K\u00e4rnten Netz GmbH", "bookedCapacity": "7,08", "availableCapacity": 0, "contact": "kommunikation@kaerntennetz.at, +43 505 25 6000", "updatedOn": 1761778800, "latitude": 46.529037, "longitude": 14.297984, "website": "https://kaerntennetz.at/dokumente/Strom/Veroeffentlichung_der_verfuegbaren_Kapazitaeten_gemaess_20_ElWOG.pdf"}, {"uid": 21895, "state": "K\u00e4rnten", "substationName": "UW Forstsee", "networkOperator": "KNG - K\u00e4rnten Netz GmbH", "bookedCapacity": "1,82", "availableCapacity": "19,72", "contact": "kommunikation@kaerntennetz.at, +43 505 25 6000", "updatedOn": 1761778800, "latitude": 46.622624, "longitude": 14.073347, "website": "https://kaerntennetz.at/dokumente/Strom/Veroeffentlichung_der_verfuegbaren_Kapazitaeten_gemaess_20_ElWOG.pdf"}, {"uid": 21896, "state": "K\u00e4rnten", "substationName": "UW Freibach", "networkOperator": "KNG - K\u00e4rnten Netz GmbH", "bookedCapacity": "2,68", "availableCapacity": 0, "contact": "kommunikation@kaerntennetz.at, +43 505 25 6000", "updatedOn": 1761778800, "latitude": 46.559342, "longitude": 14.483149, "website": "https://kaerntennetz.at/dokumente/Strom/Veroeffentlichung_der_verfuegbaren_Kapazitaeten_gemaess_20_ElWOG.pdf"}, {"uid": 21897, "state": "K\u00e4rnten", "substationName": "UW F\u00fcrnitz", "networkOperator": "KNG - K\u00e4rnten Netz GmbH", "bookedCapacity": "0,74", "availableCapacity": "6,52", "contact": "kommunikation@kaerntennetz.at, +43 505 25 6000", "updatedOn": 1761778800, "latitude": 46.557731, "longitude": 13.816997, "website": "https://kaerntennetz.at/dokumente/Strom/Veroeffentlichung_der_verfuegbaren_Kapazitaeten_gemaess_20_ElWOG.pdf"}, {"uid": 21898, "state": "K\u00e4rnten", "substationName": "UW Gailitz", "networkOperator": "KNG - K\u00e4rnten Netz GmbH", "bookedCapacity": "0,63", "availableCapacity": 0, "contact": "kommunikation@kaerntennetz.at, +43 505 25 6000", "updatedOn": 1761778800, "latitude": 46.561202, "longitude": 13.694565, "website": "https://kaerntennetz.at/dokumente/Strom/Veroeffentlichung_der_verfuegbaren_Kapazitaeten_gemaess_20_ElWOG.pdf"}, {"uid": 21899, "state": "K\u00e4rnten", "substationName": "UW Gm\u00fcnd", "networkOperator": "KNG - K\u00e4rnten Netz GmbH", "bookedCapacity": "8,06", "availableCapacity": 0, "contact": "kommunikation@kaerntennetz.at, +43 505 25 6000", "updatedOn": 1761778800, "latitude": 46.91312, "longitude": 13.53682, "website": "https://kaerntennetz.at/dokumente/Strom/Veroeffentlichung_der_verfuegbaren_Kapazitaeten_gemaess_20_ElWOG.pdf"}, {"uid": 21900, "state": "K\u00e4rnten", "substationName": "UW Gummern", "networkOperator": "KNG - K\u00e4rnten Netz GmbH", "bookedCapacity": "1,66", "availableCapacity": 0, "contact": "kommunikation@kaerntennetz.at, +43 505 25 6000", "updatedOn": 1761778800, "latitude": 46.651753, "longitude": 13.789856, "website": "https://kaerntennetz.at/dokumente/Strom/Veroeffentlichung_der_verfuegbaren_Kapazitaeten_gemaess_20_ElWOG.pdf"}, {"uid": 21901, "state": "K\u00e4rnten", "substationName": "UW Gurk", "networkOperator": "KNG - K\u00e4rnten Netz GmbH", "bookedCapacity": "8,6", "availableCapacity": 0, "contact": "kommunikation@kaerntennetz.at, +43 505 25 6000", "updatedOn": 1761778800, "latitude": 46.878331, "longitude": 14.302962, "website": "https://kaerntennetz.at/dokumente/Strom/Veroeffentlichung_der_verfuegbaren_Kapazitaeten_gemaess_20_ElWOG.pdf"}, {"uid": 21902, "state": "K\u00e4rnten", "substationName": "UW Hermagor", "networkOperator": "KNG - K\u00e4rnten Netz GmbH", "bookedCapacity": "0,51", "availableCapacity": "8,83", "contact": "kommunikation@kaerntennetz.at, +43 505 25 6000", "updatedOn": 1761778800, "latitude": 46.628787, "longitude": 13.379924, "website": "https://kaerntennetz.at/dokumente/Strom/Veroeffentlichung_der_verfuegbaren_Kapazitaeten_gemaess_20_ElWOG.pdf"}, {"uid": 21903, "state": "K\u00e4rnten", "substationName": "UW Innerfragant", "networkOperator": "KNG - K\u00e4rnten Netz GmbH", "bookedCapacity": 0, "availableCapacity": 0, "contact": "kommunikation@kaerntennetz.at, +43 505 25 6000", "updatedOn": 1761778800, "latitude": 46.976889, "longitude": 13.051855, "website": "https://kaerntennetz.at/dokumente/Strom/Veroeffentlichung_der_verfuegbaren_Kapazitaeten_gemaess_20_ElWOG.pdf"}, {"uid": 21904, "state": "K\u00e4rnten", "substationName": "UW Kamering", "networkOperator": "KNG - K\u00e4rnten Netz GmbH", "bookedCapacity": "28,7", "availableCapacity": 0, "contact": "kommunikation@kaerntennetz.at, +43 505 25 6000", "updatedOn": 1761778800, "latitude": 46.739671, "longitude": 13.59371, "website": "https://kaerntennetz.at/dokumente/Strom/Veroeffentlichung_der_verfuegbaren_Kapazitaeten_gemaess_20_ElWOG.pdf"}, {"uid": 21905, "state": "K\u00e4rnten", "substationName": "UW Klagenfurt", "networkOperator": "KNG - K\u00e4rnten Netz GmbH", "bookedCapacity": "9,32", "availableCapacity": 0, "contact": "kommunikation@kaerntennetz.at, +43 505 25 6000", "updatedOn": 1761778800, "latitude": 46.60611, "longitude": 14.320275, "website": "https://kaerntennetz.at/dokumente/Strom/Veroeffentlichung_der_verfuegbaren_Kapazitaeten_gemaess_20_ElWOG.pdf"}, {"uid": 21906, "state": "K\u00e4rnten", "substationName": "UW Kleinkirchheim", "networkOperator": "KNG - K\u00e4rnten Netz GmbH", "bookedCapacity": "0,39", "availableCapacity": 0, "contact": "kommunikation@kaerntennetz.at, +43 505 25 6000", "updatedOn": 1761778800, "latitude": 46.810567, "longitude": 13.77178, "website": "https://kaerntennetz.at/dokumente/Strom/Veroeffentlichung_der_verfuegbaren_Kapazitaeten_gemaess_20_ElWOG.pdf"}, {"uid": 21907, "state": "K\u00e4rnten", "substationName": "UW Koralpe", "networkOperator": "KNG - K\u00e4rnten Netz GmbH", "bookedCapacity": "45,5", "availableCapacity": 0, "contact": "kommunikation@kaerntennetz.at, +43 505 25 6000", "updatedOn": 1761778800, "latitude": 46.634057, "longitude": 14.955949, "website": "https://kaerntennetz.at/dokumente/Strom/Veroeffentlichung_der_verfuegbaren_Kapazitaeten_gemaess_20_ElWOG.pdf"}, {"uid": 21908, "state": "K\u00e4rnten", "substationName": "UW Landskron", "networkOperator": "KNG - K\u00e4rnten Netz GmbH", "bookedCapacity": "3,3", "availableCapacity": "31,89", "contact": "kommunikation@kaerntennetz.at, +43 505 25 6000", "updatedOn": 1761778800, "latitude": 46.631087, "longitude": 13.892654, "website": "https://kaerntennetz.at/dokumente/Strom/Veroeffentlichung_der_verfuegbaren_Kapazitaeten_gemaess_20_ElWOG.pdf"}, {"uid": 21909, "state": "K\u00e4rnten", "substationName": "UW Lassendorf", "networkOperator": "KNG - K\u00e4rnten Netz GmbH", "bookedCapacity": "10,25", "availableCapacity": "15,6", "contact": "kommunikation@kaerntennetz.at, +43 505 25 6000", "updatedOn": 1761778800, "latitude": 46.667206, "longitude": 14.420761, "website": "https://kaerntennetz.at/dokumente/Strom/Veroeffentlichung_der_verfuegbaren_Kapazitaeten_gemaess_20_ElWOG.pdf"}, {"uid": 21910, "state": "K\u00e4rnten", "substationName": "UW Lieserhofen", "networkOperator": "KNG - K\u00e4rnten Netz GmbH", "bookedCapacity": "1,17", "availableCapacity": 0, "contact": "kommunikation@kaerntennetz.at, +43 505 25 6000", "updatedOn": 1761778800, "latitude": 46.829931, "longitude": 13.477085, "website": "https://kaerntennetz.at/dokumente/Strom/Veroeffentlichung_der_verfuegbaren_Kapazitaeten_gemaess_20_ElWOG.pdf"}, {"uid": 21911, "state": "K\u00e4rnten", "substationName": "UW Malta Unterstufe", "networkOperator": "KNG - K\u00e4rnten Netz GmbH", "bookedCapacity": "22,65", "availableCapacity": 0, "contact": "kommunikation@kaerntennetz.at, +43 505 25 6000", "updatedOn": 1761778800, "latitude": 46.833286, "longitude": 13.360248, "website": "https://kaerntennetz.at/dokumente/Strom/Veroeffentlichung_der_verfuegbaren_Kapazitaeten_gemaess_20_ElWOG.pdf"}, {"uid": 21912, "state": "K\u00e4rnten", "substationName": "UW Oberdrauburg", "networkOperator": "KNG - K\u00e4rnten Netz GmbH", "bookedCapacity": "0,81", "availableCapacity": 0, "contact": "kommunikation@kaerntennetz.at, +43 505 25 6000", "updatedOn": 1761778800, "latitude": 46.74183, "longitude": 12.967463, "website": "https://kaerntennetz.at/dokumente/Strom/Veroeffentlichung_der_verfuegbaren_Kapazitaeten_gemaess_20_ElWOG.pdf"}, {"uid": 21913, "state": "K\u00e4rnten", "substationName": "UW Radenthein", "networkOperator": "KNG - K\u00e4rnten Netz GmbH", "bookedCapacity": "0,35", "availableCapacity": 0, "contact": "kommunikation@kaerntennetz.at, +43 505 25 6000", "updatedOn": 1761778800, "latitude": 46.799072, "longitude": 13.688658, "website": "https://kaerntennetz.at/dokumente/Strom/Veroeffentlichung_der_verfuegbaren_Kapazitaeten_gemaess_20_ElWOG.pdf"}, {"uid": 21914, "state": "K\u00e4rnten", "substationName": "UW Rennweg", "networkOperator": "KNG - K\u00e4rnten Netz GmbH", "bookedCapacity": "0,13", "availableCapacity": 0, "contact": "kommunikation@kaerntennetz.at, +43 505 25 6000", "updatedOn": 1761778800, "latitude": 47.02905, "longitude": 13.60402, "website": "https://kaerntennetz.at/dokumente/Strom/Veroeffentlichung_der_verfuegbaren_Kapazitaeten_gemaess_20_ElWOG.pdf"}, {"uid": 21915, "state": "K\u00e4rnten", "substationName": "UW Rosegg", "networkOperator": "KNG - K\u00e4rnten Netz GmbH", "bookedCapacity": "0,94", "availableCapacity": "11,04", "contact": "kommunikation@kaerntennetz.at, +43 505 25 6000", "updatedOn": 1761778800, "latitude": 46.567494, "longitude": 14.026762, "website": "https://kaerntennetz.at/dokumente/Strom/Veroeffentlichung_der_verfuegbaren_Kapazitaeten_gemaess_20_ElWOG.pdf"}, {"uid": 21916, "state": "K\u00e4rnten", "substationName": "UW Seebach", "networkOperator": "KNG - K\u00e4rnten Netz GmbH", "bookedCapacity": "2,27", "availableCapacity": "60,52", "contact": "kommunikation@kaerntennetz.at, +43 505 25 6000", "updatedOn": 1761778800, "latitude": 46.617058, "longitude": 13.877428, "website": "https://kaerntennetz.at/dokumente/Strom/Veroeffentlichung_der_verfuegbaren_Kapazitaeten_gemaess_20_ElWOG.pdf"}, {"uid": 21917, "state": "K\u00e4rnten", "substationName": "UW Spittal", "networkOperator": "KNG - K\u00e4rnten Netz GmbH", "bookedCapacity": "5,58", "availableCapacity": 0, "contact": "kommunikation@kaerntennetz.at, +43 505 25 6000", "updatedOn": 1761778800, "latitude": 46.789854, "longitude": 13.519832, "website": "https://kaerntennetz.at/dokumente/Strom/Veroeffentlichung_der_verfuegbaren_Kapazitaeten_gemaess_20_ElWOG.pdf"}, {"uid": 21918, "state": "K\u00e4rnten", "substationName": "UW St. Andr\u00e4", "networkOperator": "KNG - K\u00e4rnten Netz GmbH", "bookedCapacity": "48,54", "availableCapacity": 0, "contact": "kommunikation@kaerntennetz.at, +43 505 25 6000", "updatedOn": 1761778800, "latitude": 46.772678, "longitude": 14.837895, "website": "https://kaerntennetz.at/dokumente/Strom/Veroeffentlichung_der_verfuegbaren_Kapazitaeten_gemaess_20_ElWOG.pdf"}, {"uid": 21919, "state": "K\u00e4rnten", "substationName": "UW St. Leonhard", "networkOperator": "KNG - K\u00e4rnten Netz GmbH", "bookedCapacity": "38,34", "availableCapacity": 0, "contact": "kommunikation@kaerntennetz.at, +43 505 25 6000", "updatedOn": 1761778800, "latitude": 46.970827, "longitude": 14.785865, "website": "https://kaerntennetz.at/dokumente/Strom/Veroeffentlichung_der_verfuegbaren_Kapazitaeten_gemaess_20_ElWOG.pdf"}, {"uid": 21920, "state": "K\u00e4rnten", "substationName": "UW St. Margareten", "networkOperator": "KNG - K\u00e4rnten Netz GmbH", "bookedCapacity": 0, "availableCapacity": 0, "contact": "kommunikation@kaerntennetz.at, +43 505 25 6000", "updatedOn": 1761778800, "latitude": 46.545439, "longitude": 14.396446, "website": "https://kaerntennetz.at/dokumente/Strom/Veroeffentlichung_der_verfuegbaren_Kapazitaeten_gemaess_20_ElWOG.pdf"}, {"uid": 21921, "state": "K\u00e4rnten", "substationName": "UW St. Martin", "networkOperator": "KNG - K\u00e4rnten Netz GmbH", "bookedCapacity": 0, "availableCapacity": 0, "contact": "kommunikation@kaerntennetz.at, +43 505 25 6000", "updatedOn": 1761778800, "latitude": 46.578495, "longitude": 13.989591, "website": "https://kaerntennetz.at/dokumente/Strom/Veroeffentlichung_der_verfuegbaren_Kapazitaeten_gemaess_20_ElWOG.pdf"}, {"uid": 21922, "state": "K\u00e4rnten", "substationName": "UW St.Veit", "networkOperator": "KNG - K\u00e4rnten Netz GmbH", "bookedCapacity": "3,13", "availableCapacity": "21,45", "contact": "kommunikation@kaerntennetz.at, +43 505 25 6000", "updatedOn": 1761778800, "latitude": 46.760961, "longitude": 14.374472, "website": "https://kaerntennetz.at/dokumente/Strom/Veroeffentlichung_der_verfuegbaren_Kapazitaeten_gemaess_20_ElWOG.pdf"}, {"uid": 21923, "state": "K\u00e4rnten", "substationName": "UW Steinfeld", "networkOperator": "KNG - K\u00e4rnten Netz GmbH", "bookedCapacity": "0,91", "availableCapacity": 0, "contact": "kommunikation@kaerntennetz.at, +43 505 25 6000", "updatedOn": 1761778800, "latitude": 46.754038, "longitude": 13.251365, "website": "https://kaerntennetz.at/dokumente/Strom/Veroeffentlichung_der_verfuegbaren_Kapazitaeten_gemaess_20_ElWOG.pdf"}, {"uid": 21924, "state": "K\u00e4rnten", "substationName": "UW Treibach", "networkOperator": "KNG - K\u00e4rnten Netz GmbH", "bookedCapacity": "13,97", "availableCapacity": "50,27", "contact": "kommunikation@kaerntennetz.at, +43 505 25 6000", "updatedOn": 1761778800, "latitude": 46.860791, "longitude": 14.463749, "website": "https://kaerntennetz.at/dokumente/Strom/Veroeffentlichung_der_verfuegbaren_Kapazitaeten_gemaess_20_ElWOG.pdf"}, {"uid": 21925, "state": "K\u00e4rnten", "substationName": "UW Tr\u00f6polach", "networkOperator": "KNG - K\u00e4rnten Netz GmbH", "bookedCapacity": "0,46", "availableCapacity": "11,56", "contact": "kommunikation@kaerntennetz.at, +43 505 25 6000", "updatedOn": 1761778800, "latitude": 46.61747, "longitude": 13.279204, "website": "https://kaerntennetz.at/dokumente/Strom/Veroeffentlichung_der_verfuegbaren_Kapazitaeten_gemaess_20_ElWOG.pdf"}, {"uid": 21926, "state": "K\u00e4rnten", "substationName": "UW Villach-S\u00fcd", "networkOperator": "KNG - K\u00e4rnten Netz GmbH", "bookedCapacity": 0, "availableCapacity": 0, "contact": "kommunikation@kaerntennetz.at, +43 505 25 6000", "updatedOn": 1761778800, "latitude": 46.555769, "longitude": 13.828311, "website": "https://kaerntennetz.at/dokumente/Strom/Veroeffentlichung_der_verfuegbaren_Kapazitaeten_gemaess_20_ElWOG.pdf"}, {"uid": 21927, "state": "K\u00e4rnten", "substationName": "UW V\u00f6lkermarkt", "networkOperator": "KNG - K\u00e4rnten Netz GmbH", "bookedCapacity": "6,86", "availableCapacity": "33,72", "contact": "kommunikation@kaerntennetz.at, +43 505 25 6000", "updatedOn": 1761778800, "latitude": 46.660763, "longitude": 14.61938, "website": "https://kaerntennetz.at/dokumente/Strom/Veroeffentlichung_der_verfuegbaren_Kapazitaeten_gemaess_20_ElWOG.pdf"}, {"uid": 21928, "state": "K\u00e4rnten", "substationName": "UW Vorderberg", "networkOperator": "KNG - K\u00e4rnten Netz GmbH", "bookedCapacity": 0, "availableCapacity": 0, "contact": "kommunikation@kaerntennetz.at, +43 505 25 6000", "updatedOn": 1761778800, "latitude": 46.587288, "longitude": 13.533679, "website": "https://kaerntennetz.at/dokumente/Strom/Veroeffentlichung_der_verfuegbaren_Kapazitaeten_gemaess_20_ElWOG.pdf"}, {"uid": 21929, "state": "K\u00e4rnten", "substationName": "UW Warmbad", "networkOperator": "KNG - K\u00e4rnten Netz GmbH", "bookedCapacity": "1,2", "availableCapacity": "34,1", "contact": "kommunikation@kaerntennetz.at, +43 505 25 6000", "updatedOn": 1761778800, "latitude": 46.595498, "longitude": 13.833168, "website": "https://kaerntennetz.at/dokumente/Strom/Veroeffentlichung_der_verfuegbaren_Kapazitaeten_gemaess_20_ElWOG.pdf"}, {"uid": 21930, "state": "K\u00e4rnten", "substationName": "UW Wietersdorf", "networkOperator": "KNG - K\u00e4rnten Netz GmbH", "bookedCapacity": "2,03", "availableCapacity": "19,97", "contact": "kommunikation@kaerntennetz.at, +43 505 25 6000", "updatedOn": 1761778800, "latitude": 46.84161, "longitude": 14.538237, "website": "https://kaerntennetz.at/dokumente/Strom/Veroeffentlichung_der_verfuegbaren_Kapazitaeten_gemaess_20_ElWOG.pdf"}, {"uid": 21931, "state": "K\u00e4rnten", "substationName": "UW Windischbach", "networkOperator": "KNG - K\u00e4rnten Netz GmbH", "bookedCapacity": "2,73", "availableCapacity": "13,23", "contact": "kommunikation@kaerntennetz.at, +43 505 25 6000", "updatedOn": 1761778800, "latitude": 46.690004, "longitude": 14.210409, "website": "https://kaerntennetz.at/dokumente/Strom/Veroeffentlichung_der_verfuegbaren_Kapazitaeten_gemaess_20_ElWOG.pdf"}, {"uid": 21932, "state": "K\u00e4rnten", "substationName": "UW Wolfsberg", "networkOperator": "KNG - K\u00e4rnten Netz GmbH", "bookedCapacity": "36,3", "availableCapacity": 0, "contact": "kommunikation@kaerntennetz.at, +43 505 25 6000", "updatedOn": 1761778800, "latitude": 46.847584, "longitude": 14.840994, "website": "https://kaerntennetz.at/dokumente/Strom/Veroeffentlichung_der_verfuegbaren_Kapazitaeten_gemaess_20_ElWOG.pdf"}, {"uid": 21933, "state": "K\u00e4rnten", "substationName": "UW W\u00f6lla", "networkOperator": "KNG - K\u00e4rnten Netz GmbH", "bookedCapacity": 0, "availableCapacity": 0, "contact": "kommunikation@kaerntennetz.at, +43 505 25 6000", "updatedOn": 1761778800, "latitude": 46.867337, "longitude": 13.073296, "website": "https://kaerntennetz.at/dokumente/Strom/Veroeffentlichung_der_verfuegbaren_Kapazitaeten_gemaess_20_ElWOG.pdf"}, {"uid": 21934, "state": "K\u00e4rnten", "substationName": "UW W\u00fcrmlach", "networkOperator": "KNG - K\u00e4rnten Netz GmbH", "bookedCapacity": "25,3", "availableCapacity": 0, "contact": "kommunikation@kaerntennetz.at, +43 505 25 6000", "updatedOn": 1761778800, "latitude": 46.649257, "longitude": 13.071089, "website": "https://kaerntennetz.at/dokumente/Strom/Veroeffentlichung_der_verfuegbaren_Kapazitaeten_gemaess_20_ElWOG.pdf"}, {"uid": 21935, "state": "K\u00e4rnten", "substationName": "UW Zirknitz", "networkOperator": "KNG - K\u00e4rnten Netz GmbH", "bookedCapacity": "88,27", "availableCapacity": 0, "contact": "kommunikation@kaerntennetz.at, +43 505 25 6000", "updatedOn": 1761778800, "latitude": 46.995528, "longitude": 12.956976, "website": "https://kaerntennetz.at/dokumente/Strom/Veroeffentlichung_der_verfuegbaren_Kapazitaeten_gemaess_20_ElWOG.pdf"}, {"uid": 21936, "state": "K\u00e4rnten", "substationName": "UWK S\u00fcd", "networkOperator": "Energie Klagenfurt GmbH", "bookedCapacity": "31,63", "availableCapacity": 0, "contact": "hausanschluss@stw.at, +43 (0)463 521 400", "updatedOn": 1760565600, "latitude": 46.60708, "longitude": 14.32099, "website": "https://www.energieklagenfurt.at/stromnetz/oekostromanlagen/"}, {"uid": 21937, "state": "K\u00e4rnten", "substationName": "UWN Mitte", "networkOperator": "Energie Klagenfurt GmbH", "bookedCapacity": "1,46", "availableCapacity": "46,37", "contact": "hausanschluss@stw.at, +43 (0)463 521 400", "updatedOn": 1760565600, "latitude": 46.63, "longitude": 14.31547, "website": "https://www.energieklagenfurt.at/stromnetz/oekostromanlagen/"}, {"uid": 21938, "state": "K\u00e4rnten", "substationName": "UWN Nord", "networkOperator": "Energie Klagenfurt GmbH", "bookedCapacity": "1,34", "availableCapacity": "39,03", "contact": "hausanschluss@stw.at, +43 (0)463 521 400", "updatedOn": 1760565600, "latitude": 46.63008, "longitude": 14.31547, "website": "https://www.energieklagenfurt.at/stromnetz/oekostromanlagen/"}, {"uid": 21939, "state": "K\u00e4rnten", "substationName": "UWO Ost", "networkOperator": "Energie Klagenfurt GmbH", "bookedCapacity": "16,38", "availableCapacity": "13,04", "contact": "hausanschluss@stw.at, +43 (0)463 521 400", "updatedOn": 1760565600, "latitude": 46.63088, "longitude": 14.33551, "website": "https://www.energieklagenfurt.at/stromnetz/oekostromanlagen/"}, {"uid": 21940, "state": "K\u00e4rnten", "substationName": "UWW West", "networkOperator": "Energie Klagenfurt GmbH", "bookedCapacity": "3,99", "availableCapacity": "49,61", "contact": "hausanschluss@stw.at, +43 (0)463 521 400", "updatedOn": 1760565600, "latitude": 46.61173, "longitude": 14.28073, "website": "https://www.energieklagenfurt.at/stromnetz/oekostromanlagen/"}, {"uid": 21941, "state": "Nieder\u00f6sterreich", "substationName": "UW Am Schu\u00df", "networkOperator": "Netz Nieder\u00f6sterreich GmbH", "bookedCapacity": "5", "availableCapacity": "6", "contact": "info@netz-noe.at, +43 (0)2236 201 2070", "updatedOn": 1759269600, "latitude": 48.30186082, "longitude": 15.256515, "website": "https://www.netz-noe.at/Netz-Niederosterreich/Service/Okostromanlage-Portal/Erzeugungsanlagen-gro%C3%9Fer-1-MVA-(2).aspx"}, {"uid": 21942, "state": "Nieder\u00f6sterreich", "substationName": "UW Amstetten", "networkOperator": "Netz Nieder\u00f6sterreich GmbH", "bookedCapacity": "9", "availableCapacity": "20", "contact": "info@netz-noe.at, +43 (0)2236 201 2070", "updatedOn": 1759269600, "latitude": 48.11168779, "longitude": 14.866594, "website": "https://www.netz-noe.at/Netz-Niederosterreich/Service/Okostromanlage-Portal/Erzeugungsanlagen-gro%C3%9Fer-1-MVA-(2).aspx"}, {"uid": 21943, "state": "Nieder\u00f6sterreich", "substationName": "UW Amstetten Ost", "networkOperator": "Netz Nieder\u00f6sterreich GmbH", "bookedCapacity": "17", "availableCapacity": "15", "contact": "info@netz-noe.at, +43 (0)2236 201 2070", "updatedOn": 1759269600, "latitude": 48.11228021, "longitude": 14.909147, "website": "https://www.netz-noe.at/Netz-Niederosterreich/Service/Okostromanlage-Portal/Erzeugungsanlagen-gro%C3%9Fer-1-MVA-(2).aspx"}, {"uid": 21944, "state": "Nieder\u00f6sterreich", "substationName": "UW Bisamberg", "networkOperator": "Netz Nieder\u00f6sterreich GmbH", "bookedCapacity": 0, "availableCapacity": 0, "contact": "info@netz-noe.at, +43 (0)2236 201 2070", "updatedOn": 1759269600, "latitude": 48.35563674, "longitude": 16.37651254, "website": "https://www.netz-noe.at/Netz-Niederosterreich/Service/Okostromanlage-Portal/Erzeugungsanlagen-gro%C3%9Fer-1-MVA-(2).aspx"}, {"uid": 21945, "state": "Nieder\u00f6sterreich", "substationName": "UW Bockflie\u00df", "networkOperator": "Netz Nieder\u00f6sterreich GmbH", "bookedCapacity": "40", "availableCapacity": 0, "contact": "info@netz-noe.at, +43 (0)2236 201 2070", "updatedOn": 1759269600, "latitude": 48.33826507, "longitude": 16.62572524, "website": "https://www.netz-noe.at/Netz-Niederosterreich/Service/Okostromanlage-Portal/Erzeugungsanlagen-gro%C3%9Fer-1-MVA-(2).aspx"}, {"uid": 21946, "state": "Nieder\u00f6sterreich", "substationName": "UW Bruck", "networkOperator": "Netz Nieder\u00f6sterreich GmbH", "bookedCapacity": "9", "availableCapacity": 0, "contact": "info@netz-noe.at, +43 (0)2236 201 2070", "updatedOn": 1759269600, "latitude": 48.03362213, "longitude": 16.767628, "website": "https://www.netz-noe.at/Netz-Niederosterreich/Service/Okostromanlage-Portal/Erzeugungsanlagen-gro%C3%9Fer-1-MVA-(2).aspx"}, {"uid": 21947, "state": "Nieder\u00f6sterreich", "substationName": "UW Deutsch / Altenburg", "networkOperator": "Netz Nieder\u00f6sterreich GmbH", "bookedCapacity": "57", "availableCapacity": 0, "contact": "info@netz-noe.at, +43 (0)2236 201 2070", "updatedOn": 1759269600, "latitude": 48.12222895, "longitude": 16.919827, "website": "https://www.netz-noe.at/Netz-Niederosterreich/Service/Okostromanlage-Portal/Erzeugungsanlagen-gro%C3%9Fer-1-MVA-(2).aspx"}, {"uid": 21948, "state": "Nieder\u00f6sterreich", "substationName": "UW D\u00fcrnrohr", "networkOperator": "Netz Nieder\u00f6sterreich GmbH", "bookedCapacity": "22", "availableCapacity": 0, "contact": "info@netz-noe.at, +43 (0)2236 201 2070", "updatedOn": 1759269600, "latitude": 48.32933941, "longitude": 15.883403, "website": "https://www.netz-noe.at/Netz-Niederosterreich/Service/Okostromanlage-Portal/Erzeugungsanlagen-gro%C3%9Fer-1-MVA-(2).aspx"}, {"uid": 21949, "state": "Nieder\u00f6sterreich", "substationName": "UW Edlitz", "networkOperator": "Netz Nieder\u00f6sterreich GmbH", "bookedCapacity": "26", "availableCapacity": 0, "contact": "info@netz-noe.at, +43 (0)2236 201 2070", "updatedOn": 1759269600, "latitude": 47.61092102, "longitude": 16.126665, "website": "https://www.netz-noe.at/Netz-Niederosterreich/Service/Okostromanlage-Portal/Erzeugungsanlagen-gro%C3%9Fer-1-MVA-(2).aspx"}, {"uid": 21950, "state": "Nieder\u00f6sterreich", "substationName": "UW Eggenburg", "networkOperator": "Netz Nieder\u00f6sterreich GmbH", "bookedCapacity": "17", "availableCapacity": 0, "contact": "info@netz-noe.at, +43 (0)2236 201 2070", "updatedOn": 1759269600, "latitude": 48.66286731, "longitude": 15.831733, "website": "https://www.netz-noe.at/Netz-Niederosterreich/Service/Okostromanlage-Portal/Erzeugungsanlagen-gro%C3%9Fer-1-MVA-(2).aspx"}, {"uid": 21951, "state": "Nieder\u00f6sterreich", "substationName": "UW Eibesbrunn", "networkOperator": "Netz Nieder\u00f6sterreich GmbH", "bookedCapacity": "23", "availableCapacity": 0, "contact": "info@netz-noe.at, +43 (0)2236 201 2070", "updatedOn": 1759269600, "latitude": 48.36102335, "longitude": 16.505301, "website": "https://www.netz-noe.at/Netz-Niederosterreich/Service/Okostromanlage-Portal/Erzeugungsanlagen-gro%C3%9Fer-1-MVA-(2).aspx"}, {"uid": 21952, "state": "Nieder\u00f6sterreich", "substationName": "UW Eibesbrunn'", "networkOperator": "Netz Nieder\u00f6sterreich GmbH", "bookedCapacity": 0, "availableCapacity": 0, "contact": "info@netz-noe.at, +43 (0)2236 201 2070", "updatedOn": 1759269600, "latitude": 48.36102335, "longitude": 16.505301, "website": "https://www.netz-noe.at/Netz-Niederosterreich/Service/Okostromanlage-Portal/Erzeugungsanlagen-gro%C3%9Fer-1-MVA-(2).aspx"}, {"uid": 21953, "state": "Nieder\u00f6sterreich", "substationName": "UW Enzersdorf / Fischa", "networkOperator": "Netz Nieder\u00f6sterreich GmbH", "bookedCapacity": "8", "availableCapacity": 0, "contact": "info@netz-noe.at, +43 (0)2236 201 2070", "updatedOn": 1759269600, "latitude": 48.06483879, "longitude": 16.614917, "website": "https://www.netz-noe.at/Netz-Niederosterreich/Service/Okostromanlage-Portal/Erzeugungsanlagen-gro%C3%9Fer-1-MVA-(2).aspx"}, {"uid": 21954, "state": "Nieder\u00f6sterreich", "substationName": "UW Erlauf", "networkOperator": "Netz Nieder\u00f6sterreich GmbH", "bookedCapacity": "30", "availableCapacity": 0, "contact": "info@netz-noe.at, +43 (0)2236 201 2070", "updatedOn": 1759269600, "latitude": 48.18597833, "longitude": 15.180901, "website": "https://www.netz-noe.at/Netz-Niederosterreich/Service/Okostromanlage-Portal/Erzeugungsanlagen-gro%C3%9Fer-1-MVA-(2).aspx"}, {"uid": 21955, "state": "Nieder\u00f6sterreich", "substationName": "UW Erlaufboden", "networkOperator": "Netz Nieder\u00f6sterreich GmbH", "bookedCapacity": "5", "availableCapacity": "11", "contact": "info@netz-noe.at, +43 (0)2236 201 2070", "updatedOn": 1759269600, "latitude": 47.87999663, "longitude": 15.266511, "website": "https://www.netz-noe.at/Netz-Niederosterreich/Service/Okostromanlage-Portal/Erzeugungsanlagen-gro%C3%9Fer-1-MVA-(2).aspx"}, {"uid": 21956, "state": "Nieder\u00f6sterreich", "substationName": "UW Ernsthofen", "networkOperator": "Netz Nieder\u00f6sterreich GmbH", "bookedCapacity": "11", "availableCapacity": "9", "contact": "info@netz-noe.at, +43 (0)2236 201 2070", "updatedOn": 1759269600, "latitude": 48.12497076, "longitude": 14.475118, "website": "https://www.netz-noe.at/Netz-Niederosterreich/Service/Okostromanlage-Portal/Erzeugungsanlagen-gro%C3%9Fer-1-MVA-(2).aspx"}, {"uid": 21957, "state": "Nieder\u00f6sterreich", "substationName": "UW G\u00e4nserndorf", "networkOperator": "Netz Nieder\u00f6sterreich GmbH", "bookedCapacity": "23", "availableCapacity": 0, "contact": "info@netz-noe.at, +43 (0)2236 201 2070", "updatedOn": 1759269600, "latitude": 48.34418374, "longitude": 16.713807, "website": "https://www.netz-noe.at/Netz-Niederosterreich/Service/Okostromanlage-Portal/Erzeugungsanlagen-gro%C3%9Fer-1-MVA-(2).aspx"}, {"uid": 21958, "state": "Nieder\u00f6sterreich", "substationName": "UW Gaweinstal", "networkOperator": "Netz Nieder\u00f6sterreich GmbH", "bookedCapacity": "34", "availableCapacity": 0, "contact": "info@netz-noe.at, +43 (0)2236 201 2070", "updatedOn": 1759269600, "latitude": 48.47420455, "longitude": 16.56928822, "website": "https://www.netz-noe.at/Netz-Niederosterreich/Service/Okostromanlage-Portal/Erzeugungsanlagen-gro%C3%9Fer-1-MVA-(2).aspx"}, {"uid": 21959, "state": "Nieder\u00f6sterreich", "substationName": "UW Gerstl", "networkOperator": "Netz Nieder\u00f6sterreich GmbH", "bookedCapacity": "13", "availableCapacity": "13", "contact": "info@netz-noe.at, +43 (0)2236 201 2070", "updatedOn": 1759269600, "latitude": 47.98855618, "longitude": 14.74124, "website": "https://www.netz-noe.at/Netz-Niederosterreich/Service/Okostromanlage-Portal/Erzeugungsanlagen-gro%C3%9Fer-1-MVA-(2).aspx"}, {"uid": 21960, "state": "Nieder\u00f6sterreich", "substationName": "UW Gm\u00fcnd", "networkOperator": "Netz Nieder\u00f6sterreich GmbH", "bookedCapacity": "49", "availableCapacity": "14", "contact": "info@netz-noe.at, +43 (0)2236 201 2070", "updatedOn": 1759269600, "latitude": 48.76172933, "longitude": 14.988304, "website": "https://www.netz-noe.at/Netz-Niederosterreich/Service/Okostromanlage-Portal/Erzeugungsanlagen-gro%C3%9Fer-1-MVA-(2).aspx"}, {"uid": 21961, "state": "Nieder\u00f6sterreich", "substationName": "UW Gresten", "networkOperator": "Netz Nieder\u00f6sterreich GmbH", "bookedCapacity": "6", "availableCapacity": "25", "contact": "info@netz-noe.at, +43 (0)2236 201 2070", "updatedOn": 1759269600, "latitude": 47.99120936, "longitude": 15.023785, "website": "https://www.netz-noe.at/Netz-Niederosterreich/Service/Okostromanlage-Portal/Erzeugungsanlagen-gro%C3%9Fer-1-MVA-(2).aspx"}, {"uid": 21962, "state": "Nieder\u00f6sterreich", "substationName": "UW Gro\u00df Gerungs", "networkOperator": "Netz Nieder\u00f6sterreich GmbH", "bookedCapacity": "6", "availableCapacity": 0, "contact": "info@netz-noe.at, +43 (0)2236 201 2070", "updatedOn": 1759269600, "latitude": 48.57210137, "longitude": 14.990683, "website": "https://www.netz-noe.at/Netz-Niederosterreich/Service/Okostromanlage-Portal/Erzeugungsanlagen-gro%C3%9Fer-1-MVA-(2).aspx"}, {"uid": 21963, "state": "Nieder\u00f6sterreich", "substationName": "UW Grubberg", "networkOperator": "Netz Nieder\u00f6sterreich GmbH", "bookedCapacity": "2", "availableCapacity": "12", "contact": "info@netz-noe.at, +43 (0)2236 201 2070", "updatedOn": 1759269600, "latitude": 47.88699277, "longitude": 15.067891, "website": "https://www.netz-noe.at/Netz-Niederosterreich/Service/Okostromanlage-Portal/Erzeugungsanlagen-gro%C3%9Fer-1-MVA-(2).aspx"}, {"uid": 21964, "state": "Nieder\u00f6sterreich", "substationName": "UW Haag S\u00fcd", "networkOperator": "Netz Nieder\u00f6sterreich GmbH", "bookedCapacity": "32", "availableCapacity": "32", "contact": "info@netz-noe.at, +43 (0)2236 201 2070", "updatedOn": 1759269600, "latitude": 48.097, "longitude": 14.5791, "website": "https://www.netz-noe.at/Netz-Niederosterreich/Service/Okostromanlage-Portal/Erzeugungsanlagen-gro%C3%9Fer-1-MVA-(2).aspx"}, {"uid": 21965, "state": "Nieder\u00f6sterreich", "substationName": "UW Hainfeld", "networkOperator": "Netz Nieder\u00f6sterreich GmbH", "bookedCapacity": "9", "availableCapacity": 0, "contact": "info@netz-noe.at, +43 (0)2236 201 2070", "updatedOn": 1759269600, "latitude": 48.03332061, "longitude": 15.76817, "website": "https://www.netz-noe.at/Netz-Niederosterreich/Service/Okostromanlage-Portal/Erzeugungsanlagen-gro%C3%9Fer-1-MVA-(2).aspx"}, {"uid": 21966, "state": "Nieder\u00f6sterreich", "substationName": "UW Hart", "networkOperator": "Netz Nieder\u00f6sterreich GmbH", "bookedCapacity": "15", "availableCapacity": "24", "contact": "info@netz-noe.at, +43 (0)2236 201 2070", "updatedOn": 1759269600, "latitude": 47.6640925, "longitude": 15.932682, "website": "https://www.netz-noe.at/Netz-Niederosterreich/Service/Okostromanlage-Portal/Erzeugungsanlagen-gro%C3%9Fer-1-MVA-(2).aspx"}, {"uid": 21967, "state": "Nieder\u00f6sterreich", "substationName": "UW Hauskirchen", "networkOperator": "Netz Nieder\u00f6sterreich GmbH", "bookedCapacity": "14", "availableCapacity": 0, "contact": "info@netz-noe.at, +43 (0)2236 201 2070", "updatedOn": 1759269600, "latitude": 48.62586863, "longitude": 16.74898311, "website": "https://www.netz-noe.at/Netz-Niederosterreich/Service/Okostromanlage-Portal/Erzeugungsanlagen-gro%C3%9Fer-1-MVA-(2).aspx"}, {"uid": 21968, "state": "Nieder\u00f6sterreich", "substationName": "UW Hausmening", "networkOperator": "Netz Nieder\u00f6sterreich GmbH", "bookedCapacity": "9", "availableCapacity": "30", "contact": "info@netz-noe.at, +43 (0)2236 201 2070", "updatedOn": 1759269600, "latitude": 48.06240439, "longitude": 14.81199, "website": "https://www.netz-noe.at/Netz-Niederosterreich/Service/Okostromanlage-Portal/Erzeugungsanlagen-gro%C3%9Fer-1-MVA-(2).aspx"}, {"uid": 21969, "state": "Nieder\u00f6sterreich", "substationName": "UW Heidenreichstein", "networkOperator": "Netz Nieder\u00f6sterreich GmbH", "bookedCapacity": "7", "availableCapacity": 0, "contact": "info@netz-noe.at, +43 (0)2236 201 2070", "updatedOn": 1759269600, "latitude": 48.85494768, "longitude": 15.103408, "website": "https://www.netz-noe.at/Netz-Niederosterreich/Service/Okostromanlage-Portal/Erzeugungsanlagen-gro%C3%9Fer-1-MVA-(2).aspx"}, {"uid": 21970, "state": "Nieder\u00f6sterreich", "substationName": "UW Herzogenburg", "networkOperator": "Netz Nieder\u00f6sterreich GmbH", "bookedCapacity": "23", "availableCapacity": 0, "contact": "info@netz-noe.at, +43 (0)2236 201 2070", "updatedOn": 1759269600, "latitude": 48.28469634, "longitude": 15.711402, "website": "https://www.netz-noe.at/Netz-Niederosterreich/Service/Okostromanlage-Portal/Erzeugungsanlagen-gro%C3%9Fer-1-MVA-(2).aspx"}, {"uid": 21971, "state": "Nieder\u00f6sterreich", "substationName": "UW H\u00f6flein", "networkOperator": "Netz Nieder\u00f6sterreich GmbH", "bookedCapacity": 0, "availableCapacity": 0, "contact": "info@netz-noe.at, +43 (0)2236 201 2070", "updatedOn": 1759269600, "latitude": 48.04816902, "longitude": 16.78510523, "website": "https://www.netz-noe.at/Netz-Niederosterreich/Service/Okostromanlage-Portal/Erzeugungsanlagen-gro%C3%9Fer-1-MVA-(2).aspx"}, {"uid": 21972, "state": "Nieder\u00f6sterreich", "substationName": "UW Hohe Wand", "networkOperator": "Netz Nieder\u00f6sterreich GmbH", "bookedCapacity": "23", "availableCapacity": 0, "contact": "info@netz-noe.at, +43 (0)2236 201 2070", "updatedOn": 1759269600, "latitude": 47.72631393, "longitude": 16.104192, "website": "https://www.netz-noe.at/Netz-Niederosterreich/Service/Okostromanlage-Portal/Erzeugungsanlagen-gro%C3%9Fer-1-MVA-(2).aspx"}, {"uid": 21973, "state": "Nieder\u00f6sterreich", "substationName": "UW Hollabrunn", "networkOperator": "Netz Nieder\u00f6sterreich GmbH", "bookedCapacity": "10", "availableCapacity": "7", "contact": "info@netz-noe.at, +43 (0)2236 201 2070", "updatedOn": 1759269600, "latitude": 48.55935981, "longitude": 16.070915, "website": "https://www.netz-noe.at/Netz-Niederosterreich/Service/Okostromanlage-Portal/Erzeugungsanlagen-gro%C3%9Fer-1-MVA-(2).aspx"}, {"uid": 21974, "state": "Nieder\u00f6sterreich", "substationName": "UW Horn", "networkOperator": "Netz Nieder\u00f6sterreich GmbH", "bookedCapacity": "23", "availableCapacity": "7", "contact": "info@netz-noe.at, +43 (0)2236 201 2070", "updatedOn": 1759269600, "latitude": 48.64735279, "longitude": 15.632312, "website": "https://www.netz-noe.at/Netz-Niederosterreich/Service/Okostromanlage-Portal/Erzeugungsanlagen-gro%C3%9Fer-1-MVA-(2).aspx"}, {"uid": 21975, "state": "Nieder\u00f6sterreich", "substationName": "UW Japons", "networkOperator": "Netz Nieder\u00f6sterreich GmbH", "bookedCapacity": "5", "availableCapacity": 0, "contact": "info@netz-noe.at, +43 (0)2236 201 2070", "updatedOn": 1759269600, "latitude": 48.77763549, "longitude": 15.542303, "website": "https://www.netz-noe.at/Netz-Niederosterreich/Service/Okostromanlage-Portal/Erzeugungsanlagen-gro%C3%9Fer-1-MVA-(2).aspx"}, {"uid": 21976, "state": "Nieder\u00f6sterreich", "substationName": "UW Kettlasbrunn S\u00fcd", "networkOperator": "Netz Nieder\u00f6sterreich GmbH", "bookedCapacity": "17", "availableCapacity": 0, "contact": "info@netz-noe.at, +43 (0)2236 201 2070", "updatedOn": 1759269600, "latitude": 48.534142088933, "longitude": 16.625168749718, "website": "https://www.netz-noe.at/Netz-Niederosterreich/Service/Okostromanlage-Portal/Erzeugungsanlagen-gro%C3%9Fer-1-MVA-(2).aspx"}, {"uid": 21977, "state": "Nieder\u00f6sterreich", "substationName": "UW Kilb", "networkOperator": "Netz Nieder\u00f6sterreich GmbH", "bookedCapacity": "9", "availableCapacity": 0, "contact": "info@netz-noe.at, +43 (0)2236 201 2070", "updatedOn": 1759269600, "latitude": 48.0891257, "longitude": 15.389968, "website": "https://www.netz-noe.at/Netz-Niederosterreich/Service/Okostromanlage-Portal/Erzeugungsanlagen-gro%C3%9Fer-1-MVA-(2).aspx"}, {"uid": 21978, "state": "Nieder\u00f6sterreich", "substationName": "UW Kirchberg/Wagram", "networkOperator": "Netz Nieder\u00f6sterreich GmbH", "bookedCapacity": "8", "availableCapacity": 0, "contact": "info@netz-noe.at, +43 (0)2236 201 2070", "updatedOn": 1759269600, "latitude": 48.42808213, "longitude": 15.87986, "website": "https://www.netz-noe.at/Netz-Niederosterreich/Service/Okostromanlage-Portal/Erzeugungsanlagen-gro%C3%9Fer-1-MVA-(2).aspx"}, {"uid": 21979, "state": "Nieder\u00f6sterreich", "substationName": "UW Korneuburg West", "networkOperator": "Netz Nieder\u00f6sterreich GmbH", "bookedCapacity": "21", "availableCapacity": "15", "contact": "info@netz-noe.at, +43 (0)2236 201 2070", "updatedOn": 1759269600, "latitude": 48.35718022, "longitude": 16.323745, "website": "https://www.netz-noe.at/Netz-Niederosterreich/Service/Okostromanlage-Portal/Erzeugungsanlagen-gro%C3%9Fer-1-MVA-(2).aspx"}, {"uid": 21980, "state": "Nieder\u00f6sterreich", "substationName": "UW Krems", "networkOperator": "Netz Nieder\u00f6sterreich GmbH", "bookedCapacity": "18", "availableCapacity": "34", "contact": "info@netz-noe.at, +43 (0)2236 201 2070", "updatedOn": 1759269600, "latitude": 48.40688868, "longitude": 15.606943, "website": "https://www.netz-noe.at/Netz-Niederosterreich/Service/Okostromanlage-Portal/Erzeugungsanlagen-gro%C3%9Fer-1-MVA-(2).aspx"}, {"uid": 21981, "state": "Nieder\u00f6sterreich", "substationName": "UW Krumau", "networkOperator": "Netz Nieder\u00f6sterreich GmbH", "bookedCapacity": "4", "availableCapacity": "7", "contact": "info@netz-noe.at, +43 (0)2236 201 2070", "updatedOn": 1759269600, "latitude": 48.58927633, "longitude": 15.443461, "website": "https://www.netz-noe.at/Netz-Niederosterreich/Service/Okostromanlage-Portal/Erzeugungsanlagen-gro%C3%9Fer-1-MVA-(2).aspx"}, {"uid": 21982, "state": "Nieder\u00f6sterreich", "substationName": "UW Laa / Thaya", "networkOperator": "Netz Nieder\u00f6sterreich GmbH", "bookedCapacity": "42", "availableCapacity": 0, "contact": "info@netz-noe.at, +43 (0)2236 201 2070", "updatedOn": 1759269600, "latitude": 48.71489385, "longitude": 16.38256482, "website": "https://www.netz-noe.at/Netz-Niederosterreich/Service/Okostromanlage-Portal/Erzeugungsanlagen-gro%C3%9Fer-1-MVA-(2).aspx"}, {"uid": 21983, "state": "Nieder\u00f6sterreich", "substationName": "UW Langenlois", "networkOperator": "Netz Nieder\u00f6sterreich GmbH", "bookedCapacity": "8", "availableCapacity": 0, "contact": "info@netz-noe.at, +43 (0)2236 201 2070", "updatedOn": 1759269600, "latitude": 48.48057558, "longitude": 15.69334759, "website": "https://www.netz-noe.at/Netz-Niederosterreich/Service/Okostromanlage-Portal/Erzeugungsanlagen-gro%C3%9Fer-1-MVA-(2).aspx"}, {"uid": 21984, "state": "Nieder\u00f6sterreich", "substationName": "UW Lassee", "networkOperator": "Netz Nieder\u00f6sterreich GmbH", "bookedCapacity": "20", "availableCapacity": 0, "contact": "info@netz-noe.at, +43 (0)2236 201 2070", "updatedOn": 1759269600, "latitude": 48.22278122, "longitude": 16.79982731, "website": "https://www.netz-noe.at/Netz-Niederosterreich/Service/Okostromanlage-Portal/Erzeugungsanlagen-gro%C3%9Fer-1-MVA-(2).aspx"}, {"uid": 21985, "state": "Nieder\u00f6sterreich", "substationName": "UW Loosdorf", "networkOperator": "Netz Nieder\u00f6sterreich GmbH", "bookedCapacity": "32", "availableCapacity": 0, "contact": "info@netz-noe.at, +43 (0)2236 201 2070", "updatedOn": 1759269600, "latitude": 48.19724664, "longitude": 15.39024503, "website": "https://www.netz-noe.at/Netz-Niederosterreich/Service/Okostromanlage-Portal/Erzeugungsanlagen-gro%C3%9Fer-1-MVA-(2).aspx"}, {"uid": 21986, "state": "Nieder\u00f6sterreich", "substationName": "UW Mistelbach", "networkOperator": "Netz Nieder\u00f6sterreich GmbH", "bookedCapacity": "18", "availableCapacity": 0, "contact": "info@netz-noe.at, +43 (0)2236 201 2070", "updatedOn": 1759269600, "latitude": 48.56092573, "longitude": 16.57643663, "website": "https://www.netz-noe.at/Netz-Niederosterreich/Service/Okostromanlage-Portal/Erzeugungsanlagen-gro%C3%9Fer-1-MVA-(2).aspx"}, {"uid": 21987, "state": "Nieder\u00f6sterreich", "substationName": "UW Neuhaus", "networkOperator": "Netz Nieder\u00f6sterreich GmbH", "bookedCapacity": "6", "availableCapacity": "4", "contact": "info@netz-noe.at, +43 (0)2236 201 2070", "updatedOn": 1759269600, "latitude": 48.00409994, "longitude": 16.04012986, "website": "https://www.netz-noe.at/Netz-Niederosterreich/Service/Okostromanlage-Portal/Erzeugungsanlagen-gro%C3%9Fer-1-MVA-(2).aspx"}, {"uid": 21988, "state": "Nieder\u00f6sterreich", "substationName": "UW Neulengbach", "networkOperator": "Netz Nieder\u00f6sterreich GmbH", "bookedCapacity": "9", "availableCapacity": "3", "contact": "info@netz-noe.at, +43 (0)2236 201 2070", "updatedOn": 1759269600, "latitude": 48.20573109, "longitude": 15.90613777, "website": "https://www.netz-noe.at/Netz-Niederosterreich/Service/Okostromanlage-Portal/Erzeugungsanlagen-gro%C3%9Fer-1-MVA-(2).aspx"}, {"uid": 21989, "state": "Nieder\u00f6sterreich", "substationName": "UW Neusiedl / Zaya", "networkOperator": "Netz Nieder\u00f6sterreich GmbH", "bookedCapacity": "23", "availableCapacity": 0, "contact": "info@netz-noe.at, +43 (0)2236 201 2070", "updatedOn": 1759269600, "latitude": 48.60613668, "longitude": 16.79790636, "website": "https://www.netz-noe.at/Netz-Niederosterreich/Service/Okostromanlage-Portal/Erzeugungsanlagen-gro%C3%9Fer-1-MVA-(2).aspx"}, {"uid": 21990, "state": "Nieder\u00f6sterreich", "substationName": "UW Neusiedl / Zaya'", "networkOperator": "Netz Nieder\u00f6sterreich GmbH", "bookedCapacity": "248", "availableCapacity": 0, "contact": "info@netz-noe.at, +43 (0)2236 201 2070", "updatedOn": 1759269600, "latitude": 48.60618668, "longitude": 16.79790636, "website": "https://www.netz-noe.at/Netz-Niederosterreich/Service/Okostromanlage-Portal/Erzeugungsanlagen-gro%C3%9Fer-1-MVA-(2).aspx"}, {"uid": 21991, "state": "Nieder\u00f6sterreich", "substationName": "UW Ottenstein", "networkOperator": "Netz Nieder\u00f6sterreich GmbH", "bookedCapacity": "14", "availableCapacity": 0, "contact": "info@netz-noe.at, +43 (0)2236 201 2070", "updatedOn": 1759269600, "latitude": 48.59230086, "longitude": 15.33307919, "website": "https://www.netz-noe.at/Netz-Niederosterreich/Service/Okostromanlage-Portal/Erzeugungsanlagen-gro%C3%9Fer-1-MVA-(2).aspx"}, {"uid": 21992, "state": "Nieder\u00f6sterreich", "substationName": "UW Peigarten", "networkOperator": "Netz Nieder\u00f6sterreich GmbH", "bookedCapacity": "9", "availableCapacity": 0, "contact": "info@netz-noe.at, +43 (0)2236 201 2070", "updatedOn": 1759269600, "latitude": 48.69717468, "longitude": 16.04978946, "website": "https://www.netz-noe.at/Netz-Niederosterreich/Service/Okostromanlage-Portal/Erzeugungsanlagen-gro%C3%9Fer-1-MVA-(2).aspx"}, {"uid": 21993, "state": "Nieder\u00f6sterreich", "substationName": "UW Petronell", "networkOperator": "Netz Nieder\u00f6sterreich GmbH", "bookedCapacity": "56", "availableCapacity": 0, "contact": "info@netz-noe.at, +43 (0)2236 201 2070", "updatedOn": 1759269600, "latitude": 48.09582608, "longitude": 16.86580073, "website": "https://www.netz-noe.at/Netz-Niederosterreich/Service/Okostromanlage-Portal/Erzeugungsanlagen-gro%C3%9Fer-1-MVA-(2).aspx"}, {"uid": 21994, "state": "Nieder\u00f6sterreich", "substationName": "UW Pottenbrunn", "networkOperator": "Netz Nieder\u00f6sterreich GmbH", "bookedCapacity": "30", "availableCapacity": 0, "contact": "info@netz-noe.at, +43 (0)2236 201 2070", "updatedOn": 1759269600, "latitude": 48.22428875, "longitude": 15.68785393, "website": "https://www.netz-noe.at/Netz-Niederosterreich/Service/Okostromanlage-Portal/Erzeugungsanlagen-gro%C3%9Fer-1-MVA-(2).aspx"}, {"uid": 21995, "state": "Nieder\u00f6sterreich", "substationName": "UW Pottenstein", "networkOperator": "Netz Nieder\u00f6sterreich GmbH", "bookedCapacity": "11", "availableCapacity": "13", "contact": "info@netz-noe.at, +43 (0)2236 201 2070", "updatedOn": 1759269600, "latitude": 47.95358048, "longitude": 16.09754551, "website": "https://www.netz-noe.at/Netz-Niederosterreich/Service/Okostromanlage-Portal/Erzeugungsanlagen-gro%C3%9Fer-1-MVA-(2).aspx"}, {"uid": 21996, "state": "Nieder\u00f6sterreich", "substationName": "UW Poysdorf", "networkOperator": "Netz Nieder\u00f6sterreich GmbH", "bookedCapacity": "16", "availableCapacity": 0, "contact": "info@netz-noe.at, +43 (0)2236 201 2070", "updatedOn": 1759269600, "latitude": 48.65530685, "longitude": 16.6304003, "website": "https://www.netz-noe.at/Netz-Niederosterreich/Service/Okostromanlage-Portal/Erzeugungsanlagen-gro%C3%9Fer-1-MVA-(2).aspx"}, {"uid": 21997, "state": "Nieder\u00f6sterreich", "substationName": "UW Pre\u00dfbaum", "networkOperator": "Netz Nieder\u00f6sterreich GmbH", "bookedCapacity": "4", "availableCapacity": "18", "contact": "info@netz-noe.at, +43 (0)2236 201 2070", "updatedOn": 1759269600, "latitude": 48.17808531, "longitude": 16.06990223, "website": "https://www.netz-noe.at/Netz-Niederosterreich/Service/Okostromanlage-Portal/Erzeugungsanlagen-gro%C3%9Fer-1-MVA-(2).aspx"}, {"uid": 21998, "state": "Nieder\u00f6sterreich", "substationName": "UW Prinzendorf-Steinberg", "networkOperator": "Netz Nieder\u00f6sterreich GmbH", "bookedCapacity": "14", "availableCapacity": 0, "contact": "info@netz-noe.at, +43 (0)2236 201 2070", "updatedOn": 1759269600, "latitude": 48.58740052, "longitude": 16.74684053, "website": "https://www.netz-noe.at/Netz-Niederosterreich/Service/Okostromanlage-Portal/Erzeugungsanlagen-gro%C3%9Fer-1-MVA-(2).aspx"}, {"uid": 21999, "state": "Nieder\u00f6sterreich", "substationName": "UW Prottes", "networkOperator": "Netz Nieder\u00f6sterreich GmbH", "bookedCapacity": "6", "availableCapacity": 0, "contact": "info@netz-noe.at, +43 (0)2236 201 2070", "updatedOn": 1759269600, "latitude": 48.38613443, "longitude": 16.76198383, "website": "https://www.netz-noe.at/Netz-Niederosterreich/Service/Okostromanlage-Portal/Erzeugungsanlagen-gro%C3%9Fer-1-MVA-(2).aspx"}, {"uid": 22000, "state": "Nieder\u00f6sterreich", "substationName": "UW Pyburg", "networkOperator": "Netz Nieder\u00f6sterreich GmbH", "bookedCapacity": "28", "availableCapacity": 0, "contact": "info@netz-noe.at, +43 (0)2236 201 2070", "updatedOn": 1759269600, "latitude": 48.23230844, "longitude": 14.51628733, "website": "https://www.netz-noe.at/Netz-Niederosterreich/Service/Okostromanlage-Portal/Erzeugungsanlagen-gro%C3%9Fer-1-MVA-(2).aspx"}, {"uid": 22001, "state": "Nieder\u00f6sterreich", "substationName": "UW Sallingberg", "networkOperator": "Netz Nieder\u00f6sterreich GmbH", "bookedCapacity": "21", "availableCapacity": 0, "contact": "info@netz-noe.at, +43 (0)2236 201 2070", "updatedOn": 1759269600, "latitude": 48.47402327, "longitude": 15.24156794, "website": "https://www.netz-noe.at/Netz-Niederosterreich/Service/Okostromanlage-Portal/Erzeugungsanlagen-gro%C3%9Fer-1-MVA-(2).aspx"}, {"uid": 22002, "state": "Nieder\u00f6sterreich", "substationName": "UW Sarasdorf", "networkOperator": "Netz Nieder\u00f6sterreich GmbH", "bookedCapacity": 0, "availableCapacity": 0, "contact": "info@netz-noe.at, +43 (0)2236 201 2070", "updatedOn": 1759269600, "latitude": 48.03157194, "longitude": 16.69454542, "website": "https://www.netz-noe.at/Netz-Niederosterreich/Service/Okostromanlage-Portal/Erzeugungsanlagen-gro%C3%9Fer-1-MVA-(2).aspx"}, {"uid": 22003, "state": "Nieder\u00f6sterreich", "substationName": "UW Schoeller", "networkOperator": "Netz Nieder\u00f6sterreich GmbH", "bookedCapacity": "7", "availableCapacity": "30", "contact": "info@netz-noe.at, +43 (0)2236 201 2070", "updatedOn": 1759269600, "latitude": 47.71069546, "longitude": 16.03136226, "website": "https://www.netz-noe.at/Netz-Niederosterreich/Service/Okostromanlage-Portal/Erzeugungsanlagen-gro%C3%9Fer-1-MVA-(2).aspx"}, {"uid": 22004, "state": "Nieder\u00f6sterreich", "substationName": "UW Spannberg", "networkOperator": "Netz Nieder\u00f6sterreich GmbH", "bookedCapacity": "6", "availableCapacity": 0, "contact": "info@netz-noe.at, +43 (0)2236 201 2070", "updatedOn": 1759269600, "latitude": 48.46754035, "longitude": 16.76020605, "website": "https://www.netz-noe.at/Netz-Niederosterreich/Service/Okostromanlage-Portal/Erzeugungsanlagen-gro%C3%9Fer-1-MVA-(2).aspx"}, {"uid": 22005, "state": "Nieder\u00f6sterreich", "substationName": "UW Spannberg'", "networkOperator": "Netz Nieder\u00f6sterreich GmbH", "bookedCapacity": "189", "availableCapacity": 0, "contact": "info@netz-noe.at, +43 (0)2236 201 2070", "updatedOn": 1759269600, "latitude": 48.46759, "longitude": 16.76020605, "website": "https://www.netz-noe.at/Netz-Niederosterreich/Service/Okostromanlage-Portal/Erzeugungsanlagen-gro%C3%9Fer-1-MVA-(2).aspx"}, {"uid": 22006, "state": "Nieder\u00f6sterreich", "substationName": "UW St. P\u00f6lten West", "networkOperator": "Netz Nieder\u00f6sterreich GmbH", "bookedCapacity": "30", "availableCapacity": "30", "contact": "info@netz-noe.at, +43 (0)2236 201 2070", "updatedOn": 1759269600, "latitude": 48.19891381, "longitude": 15.60671616, "website": "https://www.netz-noe.at/Netz-Niederosterreich/Service/Okostromanlage-Portal/Erzeugungsanlagen-gro%C3%9Fer-1-MVA-(2).aspx"}, {"uid": 22007, "state": "Nieder\u00f6sterreich", "substationName": "UW Stockerau", "networkOperator": "Netz Nieder\u00f6sterreich GmbH", "bookedCapacity": "22", "availableCapacity": 0, "contact": "info@netz-noe.at, +43 (0)2236 201 2070", "updatedOn": 1759269600, "latitude": 48.39320761, "longitude": 16.20644924, "website": "https://www.netz-noe.at/Netz-Niederosterreich/Service/Okostromanlage-Portal/Erzeugungsanlagen-gro%C3%9Fer-1-MVA-(2).aspx"}, {"uid": 22008, "state": "Nieder\u00f6sterreich", "substationName": "UW Stollhofen", "networkOperator": "Netz Nieder\u00f6sterreich GmbH", "bookedCapacity": "13", "availableCapacity": 0, "contact": "info@netz-noe.at, +43 (0)2236 201 2070", "updatedOn": 1759269600, "latitude": 48.35684194, "longitude": 15.75764708, "website": "https://www.netz-noe.at/Netz-Niederosterreich/Service/Okostromanlage-Portal/Erzeugungsanlagen-gro%C3%9Fer-1-MVA-(2).aspx"}, {"uid": 22009, "state": "Nieder\u00f6sterreich", "substationName": "UW Stratzdorf", "networkOperator": "Netz Nieder\u00f6sterreich GmbH", "bookedCapacity": "20", "availableCapacity": 0, "contact": "info@netz-noe.at, +43 (0)2236 201 2070", "updatedOn": 1759269600, "latitude": 48.40923731, "longitude": 15.69021659, "website": "https://www.netz-noe.at/Netz-Niederosterreich/Service/Okostromanlage-Portal/Erzeugungsanlagen-gro%C3%9Fer-1-MVA-(2).aspx"}, {"uid": 22010, "state": "Nieder\u00f6sterreich", "substationName": "UW Ternitz", "networkOperator": "Netz Nieder\u00f6sterreich GmbH", "bookedCapacity": "17", "availableCapacity": "6", "contact": "info@netz-noe.at, +43 (0)2236 201 2070", "updatedOn": 1759269600, "latitude": 47.70878176, "longitude": 16.06402212, "website": "https://www.netz-noe.at/Netz-Niederosterreich/Service/Okostromanlage-Portal/Erzeugungsanlagen-gro%C3%9Fer-1-MVA-(2).aspx"}, {"uid": 22011, "state": "Nieder\u00f6sterreich", "substationName": "UW Traisen", "networkOperator": "Netz Nieder\u00f6sterreich GmbH", "bookedCapacity": "5", "availableCapacity": "19", "contact": "info@netz-noe.at, +43 (0)2236 201 2070", "updatedOn": 1759269600, "latitude": 48.04504588, "longitude": 15.61624425, "website": "https://www.netz-noe.at/Netz-Niederosterreich/Service/Okostromanlage-Portal/Erzeugungsanlagen-gro%C3%9Fer-1-MVA-(2).aspx"}, {"uid": 22012, "state": "Nieder\u00f6sterreich", "substationName": "UW Tulln West", "networkOperator": "Netz Nieder\u00f6sterreich GmbH", "bookedCapacity": "41", "availableCapacity": "9", "contact": "info@netz-noe.at, +43 (0)2236 201 2070", "updatedOn": 1759269600, "latitude": 48.3139414, "longitude": 16.04141889, "website": "https://www.netz-noe.at/Netz-Niederosterreich/Service/Okostromanlage-Portal/Erzeugungsanlagen-gro%C3%9Fer-1-MVA-(2).aspx"}, {"uid": 22013, "state": "Nieder\u00f6sterreich", "substationName": "UW T\u00fcrnitz", "networkOperator": "Netz Nieder\u00f6sterreich GmbH", "bookedCapacity": "7", "availableCapacity": "2", "contact": "info@netz-noe.at, +43 (0)2236 201 2070", "updatedOn": 1759269600, "latitude": 47.9303108, "longitude": 15.47715899, "website": "https://www.netz-noe.at/Netz-Niederosterreich/Service/Okostromanlage-Portal/Erzeugungsanlagen-gro%C3%9Fer-1-MVA-(2).aspx"}, {"uid": 22014, "state": "Nieder\u00f6sterreich", "substationName": "UW Untersiebenbrunn", "networkOperator": "Netz Nieder\u00f6sterreich GmbH", "bookedCapacity": "5", "availableCapacity": 0, "contact": "info@netz-noe.at, +43 (0)2236 201 2070", "updatedOn": 1759269600, "latitude": 48.26544682, "longitude": 16.74857401, "website": "https://www.netz-noe.at/Netz-Niederosterreich/Service/Okostromanlage-Portal/Erzeugungsanlagen-gro%C3%9Fer-1-MVA-(2).aspx"}, {"uid": 22015, "state": "Nieder\u00f6sterreich", "substationName": "UW Waidhofen/Thaya", "networkOperator": "Netz Nieder\u00f6sterreich GmbH", "bookedCapacity": "16", "availableCapacity": "6", "contact": "info@netz-noe.at, +43 (0)2236 201 2070", "updatedOn": 1759269600, "latitude": 48.80682562, "longitude": 15.27590573, "website": "https://www.netz-noe.at/Netz-Niederosterreich/Service/Okostromanlage-Portal/Erzeugungsanlagen-gro%C3%9Fer-1-MVA-(2).aspx"}, {"uid": 22016, "state": "Nieder\u00f6sterreich", "substationName": "UW Waldegg", "networkOperator": "Netz Nieder\u00f6sterreich GmbH", "bookedCapacity": "21", "availableCapacity": "37", "contact": "info@netz-noe.at, +43 (0)2236 201 2070", "updatedOn": 1759269600, "latitude": 47.86773885, "longitude": 16.05589389, "website": "https://www.netz-noe.at/Netz-Niederosterreich/Service/Okostromanlage-Portal/Erzeugungsanlagen-gro%C3%9Fer-1-MVA-(2).aspx"}, {"uid": 22017, "state": "Nieder\u00f6sterreich", "substationName": "UW Wasenbruck", "networkOperator": "Netz Nieder\u00f6sterreich GmbH", "bookedCapacity": "5", "availableCapacity": 0, "contact": "info@netz-noe.at, +43 (0)2236 201 2070", "updatedOn": 1759269600, "latitude": 47.97926528, "longitude": 16.56829642, "website": "https://www.netz-noe.at/Netz-Niederosterreich/Service/Okostromanlage-Portal/Erzeugungsanlagen-gro%C3%9Fer-1-MVA-(2).aspx"}, {"uid": 22018, "state": "Nieder\u00f6sterreich", "substationName": "UW Wieselburg", "networkOperator": "Netz Nieder\u00f6sterreich GmbH", "bookedCapacity": "24", "availableCapacity": 0, "contact": "info@netz-noe.at, +43 (0)2236 201 2070", "updatedOn": 1759269600, "latitude": 48.11097361, "longitude": 15.13430104, "website": "https://www.netz-noe.at/Netz-Niederosterreich/Service/Okostromanlage-Portal/Erzeugungsanlagen-gro%C3%9Fer-1-MVA-(2).aspx"}, {"uid": 22019, "state": "Nieder\u00f6sterreich", "substationName": "UW Wilhelmsburg", "networkOperator": "Netz Nieder\u00f6sterreich GmbH", "bookedCapacity": "17", "availableCapacity": "20", "contact": "info@netz-noe.at, +43 (0)2236 201 2070", "updatedOn": 1759269600, "latitude": 48.11122004, "longitude": 15.61335746, "website": "https://www.netz-noe.at/Netz-Niederosterreich/Service/Okostromanlage-Portal/Erzeugungsanlagen-gro%C3%9Fer-1-MVA-(2).aspx"}, {"uid": 22020, "state": "Nieder\u00f6sterreich", "substationName": "UW W\u00f6llersdorf", "networkOperator": "Netz Nieder\u00f6sterreich GmbH", "bookedCapacity": "71", "availableCapacity": "10", "contact": "info@netz-noe.at, +43 (0)2236 201 2070", "updatedOn": 1759269600, "latitude": 47.84857738, "longitude": 16.1870131, "website": "https://www.netz-noe.at/Netz-Niederosterreich/Service/Okostromanlage-Portal/Erzeugungsanlagen-gro%C3%9Fer-1-MVA-(2).aspx"}, {"uid": 22021, "state": "Nieder\u00f6sterreich", "substationName": "UW Wr. Neustadt", "networkOperator": "Netz Nieder\u00f6sterreich GmbH", "bookedCapacity": "18", "availableCapacity": "33", "contact": "info@netz-noe.at, +43 (0)2236 201 2070", "updatedOn": 1759269600, "latitude": 47.81612159, "longitude": 16.2681561, "website": "https://www.netz-noe.at/Netz-Niederosterreich/Service/Okostromanlage-Portal/Erzeugungsanlagen-gro%C3%9Fer-1-MVA-(2).aspx"}, {"uid": 22022, "state": "Nieder\u00f6sterreich", "substationName": "UW Wr. Neustadt Flugfeld", "networkOperator": "Netz Nieder\u00f6sterreich GmbH", "bookedCapacity": "27", "availableCapacity": 0, "contact": "info@netz-noe.at, +43 (0)2236 201 2070", "updatedOn": 1759269600, "latitude": 47.83650801, "longitude": 16.24577669, "website": "https://www.netz-noe.at/Netz-Niederosterreich/Service/Okostromanlage-Portal/Erzeugungsanlagen-gro%C3%9Fer-1-MVA-(2).aspx"}, {"uid": 22023, "state": "Nieder\u00f6sterreich", "substationName": "UW Zagging", "networkOperator": "Netz Nieder\u00f6sterreich GmbH", "bookedCapacity": 0, "availableCapacity": 0, "contact": "info@netz-noe.at, +43 (0)2236 201 2070", "updatedOn": 1759269600, "latitude": 48.27219299, "longitude": 15.65270427, "website": "https://www.netz-noe.at/Netz-Niederosterreich/Service/Okostromanlage-Portal/Erzeugungsanlagen-gro%C3%9Fer-1-MVA-(2).aspx"}, {"uid": 22024, "state": "Nieder\u00f6sterreich", "substationName": "UW Zwettl", "networkOperator": "Netz Nieder\u00f6sterreich GmbH", "bookedCapacity": "12", "availableCapacity": 0, "contact": "info@netz-noe.at, +43 (0)2236 201 2070", "updatedOn": 1759269600, "latitude": 48.59943912, "longitude": 15.18001167, "website": "https://www.netz-noe.at/Netz-Niederosterreich/Service/Okostromanlage-Portal/Erzeugungsanlagen-gro%C3%9Fer-1-MVA-(2).aspx"}, {"uid": 22025, "state": "Nieder\u00f6sterreich", "substationName": "UW BADEN", "networkOperator": "Wiener Netze GmbH", "bookedCapacity": "0,92", "availableCapacity": 0, "contact": "nts-b@wienernetze.at, +43 050128 0", "updatedOn": 1761170400, "latitude": 48.01066, "longitude": 16.252712, "website": "https://www.wienernetze.at/o/document/uw_kapazitaeten"}, {"uid": 22026, "state": "Nieder\u00f6sterreich", "substationName": "UW EBREICHSDORF", "networkOperator": "Wiener Netze GmbH", "bookedCapacity": "0,29", "availableCapacity": 0, "contact": "nts-b@wienernetze.at, +43 050128 0", "updatedOn": 1761170400, "latitude": 47.969089, "longitude": 16.400361, "website": "https://www.wienernetze.at/o/document/uw_kapazitaeten"}, {"uid": 22027, "state": "Nieder\u00f6sterreich", "substationName": "UW EBENFURTH", "networkOperator": "Wiener Netze GmbH", "bookedCapacity": "0,11", "availableCapacity": 0, "contact": "nts-b@wienernetze.at, +43 050128 0", "updatedOn": 1761170400, "latitude": 47.878616, "longitude": 16.369124, "website": "https://www.wienernetze.at/o/document/uw_kapazitaeten"}, {"uid": 22028, "state": "Nieder\u00f6sterreich", "substationName": "UW ENZESFELD", "networkOperator": "Wiener Netze GmbH", "bookedCapacity": "0,14", "availableCapacity": 0, "contact": "nts-b@wienernetze.at, +43 050128 0", "updatedOn": 1761170400, "latitude": 47.927557, "longitude": 16.187596, "website": "https://www.wienernetze.at/o/document/uw_kapazitaeten"}, {"uid": 22029, "state": "Nieder\u00f6sterreich", "substationName": "UW GERASDORF", "networkOperator": "Wiener Netze GmbH", "bookedCapacity": "0,23", "availableCapacity": 0, "contact": "nts-b@wienernetze.at, +43 050128 0", "updatedOn": 1761170400, "latitude": 48.319563, "longitude": 16.437236, "website": "https://www.wienernetze.at/o/document/uw_kapazitaeten"}, {"uid": 22030, "state": "Nieder\u00f6sterreich", "substationName": "UW KLOSTERNEUBURG", "networkOperator": "Wiener Netze GmbH", "bookedCapacity": "0,61", "availableCapacity": "24,42", "contact": "nts-b@wienernetze.at, +43 050128 0", "updatedOn": 1761170400, "latitude": 48.298023, "longitude": 16.331781, "website": "https://www.wienernetze.at/o/document/uw_kapazitaeten"}, {"uid": 22031, "state": "Nieder\u00f6sterreich", "substationName": "UW MOOSBRUNN", "networkOperator": "Wiener Netze GmbH", "bookedCapacity": "0,42", "availableCapacity": 0, "contact": "nts-b@wienernetze.at, +43 050128 0", "updatedOn": 1761170400, "latitude": 48.019992, "longitude": 16.461763, "website": "https://www.wienernetze.at/o/document/uw_kapazitaeten"}, {"uid": 22032, "state": "Nieder\u00f6sterreich", "substationName": "UW TRAISKIRCHEN", "networkOperator": "Wiener Netze GmbH", "bookedCapacity": "0,25", "availableCapacity": 0, "contact": "nts-b@wienernetze.at, +43 050128 0", "updatedOn": 1761170400, "latitude": 48.01681, "longitude": 16.294342, "website": "https://www.wienernetze.at/o/document/uw_kapazitaeten"}, {"uid": 22033, "state": "Nieder\u00f6sterreich", "substationName": "UW WrNEUDORF", "networkOperator": "Wiener Netze GmbH", "bookedCapacity": "0,67", "availableCapacity": 0, "contact": "nts-b@wienernetze.at, +43 050128 0", "updatedOn": 1761170400, "latitude": 48.070539, "longitude": 16.323516, "website": "https://www.wienernetze.at/o/document/uw_kapazitaeten"}, {"uid": 22034, "state": "Ober\u00f6sterreich", "substationName": "UW Abwinden-Asten", "networkOperator": "Linz Netz GmbH", "bookedCapacity": "9,98", "availableCapacity": "15,73", "contact": "einspeiser@linznetz.at, +43 (0) 732 3403 3698", "updatedOn": 1761778800, "latitude": 48.247457, "longitude": 14.427724, "website": "https://www.linznetz.at/portal/de/home/strom/mein_stromanschluss/erzeugungsanlage_anschliessen/einspeisekapazitaeten"}, {"uid": 22035, "state": "Ober\u00f6sterreich", "substationName": "UW Baumgartenberg", "networkOperator": "Linz Netz GmbH", "bookedCapacity": "23,66", "availableCapacity": 0, "contact": "einspeiser@linznetz.at, +43 (0) 732 3403 3698", "updatedOn": 1761778800, "latitude": 48.205768, "longitude": 14.759865, "website": "https://www.linznetz.at/portal/de/home/strom/mein_stromanschluss/erzeugungsanlage_anschliessen/einspeisekapazitaeten"}, {"uid": 22036, "state": "Ober\u00f6sterreich", "substationName": "UW Linz City", "networkOperator": "Linz Netz GmbH", "bookedCapacity": "1,45", "availableCapacity": "33,75", "contact": "einspeiser@linznetz.at, +43 (0) 732 3403 3698", "updatedOn": 1761778800, "latitude": 48.296820544953, "longitude": 14.300208, "website": "https://www.linznetz.at/portal/de/home/strom/mein_stromanschluss/erzeugungsanlage_anschliessen/einspeisekapazitaeten"}, {"uid": 22037, "state": "Ober\u00f6sterreich", "substationName": "UW Enns Industrie", "networkOperator": "Linz Netz GmbH", "bookedCapacity": "3,9", "availableCapacity": "23,97", "contact": "einspeiser@linznetz.at, +43 (0) 732 3403 3698", "updatedOn": 1761778800, "latitude": 48.234398659021, "longitude": 14.494848, "website": "https://www.linznetz.at/portal/de/home/strom/mein_stromanschluss/erzeugungsanlage_anschliessen/einspeisekapazitaeten"}, {"uid": 22038, "state": "Ober\u00f6sterreich", "substationName": "UW Friensdorf", "networkOperator": "Linz Netz GmbH", "bookedCapacity": "9,59", "availableCapacity": 0, "contact": "einspeiser@linznetz.at, +43 (0) 732 3403 3698", "updatedOn": 1761778800, "latitude": 48.359805492799, "longitude": 14.500671, "website": "https://www.linznetz.at/portal/de/home/strom/mein_stromanschluss/erzeugungsanlage_anschliessen/einspeisekapazitaeten"}, {"uid": 22039, "state": "Ober\u00f6sterreich", "substationName": "UW Linz FHKW Mitte", "networkOperator": "Linz Netz GmbH", "bookedCapacity": "2,5", "availableCapacity": "32,7", "contact": "einspeiser@linznetz.at, +43 (0) 732 3403 3698", "updatedOn": 1761778800, "latitude": 48.300625606332, "longitude": 14.322095, "website": "https://www.linznetz.at/portal/de/home/strom/mein_stromanschluss/erzeugungsanlage_anschliessen/einspeisekapazitaeten"}, {"uid": 22040, "state": "Ober\u00f6sterreich", "substationName": "UW Freistadt", "networkOperator": "Linz Netz GmbH", "bookedCapacity": "6,22", "availableCapacity": "11,6", "contact": "einspeiser@linznetz.at, +43 (0) 732 3403 3698", "updatedOn": 1761778800, "latitude": 48.496541098353, "longitude": 14.496677, "website": "https://www.linznetz.at/portal/de/home/strom/mein_stromanschluss/erzeugungsanlage_anschliessen/einspeisekapazitaeten"}, {"uid": 22041, "state": "Ober\u00f6sterreich", "substationName": "UW Franzosenhausweg", "networkOperator": "Linz Netz GmbH", "bookedCapacity": "4,94", "availableCapacity": "16,15", "contact": "einspeiser@linznetz.at, +43 (0) 732 3403 3698", "updatedOn": 1761778800, "latitude": 48.242643508062, "longitude": 14.299302, "website": "https://www.linznetz.at/portal/de/home/strom/mein_stromanschluss/erzeugungsanlage_anschliessen/einspeisekapazitaeten"}, {"uid": 22042, "state": "Ober\u00f6sterreich", "substationName": "UW Gaumberg", "networkOperator": "Linz Netz GmbH", "bookedCapacity": "1,88", "availableCapacity": "25,62", "contact": "einspeiser@linznetz.at, +43 (0) 732 3403 3698", "updatedOn": 1761778800, "latitude": 48.276597569025, "longitude": 14.27577, "website": "https://www.linznetz.at/portal/de/home/strom/mein_stromanschluss/erzeugungsanlage_anschliessen/einspeisekapazitaeten"}, {"uid": 22043, "state": "Ober\u00f6sterreich", "substationName": "UW FHKW Linz S\u00fcd", "networkOperator": "Linz Netz GmbH", "bookedCapacity": "0,39", "availableCapacity": "8,84", "contact": "einspeiser@linznetz.at, +43 (0) 732 3403 3698", "updatedOn": 1761778800, "latitude": 48.267428326037, "longitude": 14.347507, "website": "https://www.linznetz.at/portal/de/home/strom/mein_stromanschluss/erzeugungsanlage_anschliessen/einspeisekapazitaeten"}, {"uid": 22044, "state": "Ober\u00f6sterreich", "substationName": "UW Linz Katzbach", "networkOperator": "Linz Netz GmbH", "bookedCapacity": "1,55", "availableCapacity": "20,45", "contact": "einspeiser@linznetz.at, +43 (0) 732 3403 3698", "updatedOn": 1761778800, "latitude": 48.324313439686, "longitude": 14.3243, "website": "https://www.linznetz.at/portal/de/home/strom/mein_stromanschluss/erzeugungsanlage_anschliessen/einspeisekapazitaeten"}, {"uid": 22045, "state": "Ober\u00f6sterreich", "substationName": "UW Kleinm\u00fcnchen", "networkOperator": "Linz Netz GmbH", "bookedCapacity": "2,42", "availableCapacity": "31,07", "contact": "einspeiser@linznetz.at, +43 (0) 732 3403 3698", "updatedOn": 1761778800, "latitude": 48.249982216817, "longitude": 14.31973, "website": "https://www.linznetz.at/portal/de/home/strom/mein_stromanschluss/erzeugungsanlage_anschliessen/einspeisekapazitaeten"}, {"uid": 22046, "state": "Ober\u00f6sterreich", "substationName": "UW Leonding", "networkOperator": "Linz Netz GmbH", "bookedCapacity": "4,66", "availableCapacity": "13,12", "contact": "einspeiser@linznetz.at, +43 (0) 732 3403 3698", "updatedOn": 1761778800, "latitude": 48.268888787559, "longitude": 14.226104, "website": "https://www.linznetz.at/portal/de/home/strom/mein_stromanschluss/erzeugungsanlage_anschliessen/einspeisekapazitaeten"}, {"uid": 22047, "state": "Ober\u00f6sterreich", "substationName": "UW Linz Industrie Bau 103", "networkOperator": "Linz Netz GmbH", "bookedCapacity": "0,15", "availableCapacity": "34,5", "contact": "einspeiser@linznetz.at, +43 (0) 732 3403 3698", "updatedOn": 1761778800, "latitude": 48.292041259232, "longitude": 14.323953, "website": "https://www.linznetz.at/portal/de/home/strom/mein_stromanschluss/erzeugungsanlage_anschliessen/einspeisekapazitaeten"}, {"uid": 22048, "state": "Ober\u00f6sterreich", "substationName": "UW Linz Ost Bau 100 (10kV)", "networkOperator": "Linz Netz GmbH", "bookedCapacity": "0,31", "availableCapacity": "21,6", "contact": "einspeiser@linznetz.at, +43 (0) 732 3403 3698", "updatedOn": 1761778800, "latitude": 48.287640156002, "longitude": 14.330932, "website": "https://www.linznetz.at/portal/de/home/strom/mein_stromanschluss/erzeugungsanlage_anschliessen/einspeisekapazitaeten"}, {"uid": 22049, "state": "Ober\u00f6sterreich", "substationName": "UW Linz Ost Bau 102 (6kV)", "networkOperator": "Linz Netz GmbH", "bookedCapacity": "0,09", "availableCapacity": "21,91", "contact": "einspeiser@linznetz.at, +43 (0) 732 3403 3698", "updatedOn": 1761778800, "latitude": 48.289296942433, "longitude": 14.330602, "website": "https://www.linznetz.at/portal/de/home/strom/mein_stromanschluss/erzeugungsanlage_anschliessen/einspeisekapazitaeten"}, {"uid": 22050, "state": "Ober\u00f6sterreich", "substationName": "UW Mauthausen", "networkOperator": "Linz Netz GmbH", "bookedCapacity": "22,98", "availableCapacity": 0, "contact": "einspeiser@linznetz.at, +43 (0) 732 3403 3698", "updatedOn": 1761778800, "latitude": 48.241369736797, "longitude": 14.538888, "website": "https://www.linznetz.at/portal/de/home/strom/mein_stromanschluss/erzeugungsanlage_anschliessen/einspeisekapazitaeten"}, {"uid": 22051, "state": "Ober\u00f6sterreich", "substationName": "UW Linz Mitte", "networkOperator": "Linz Netz GmbH", "bookedCapacity": "2,06", "availableCapacity": "39,19", "contact": "einspeiser@linznetz.at, +43 (0) 732 3403 3698", "updatedOn": 1761778800, "latitude": 48.311163798567, "longitude": 14.303636201485, "website": "https://www.linznetz.at/portal/de/home/strom/mein_stromanschluss/erzeugungsanlage_anschliessen/einspeisekapazitaeten"}, {"uid": 22052, "state": "Ober\u00f6sterreich", "substationName": "UW Linz Nord (10kV)", "networkOperator": "Linz Netz GmbH", "bookedCapacity": "2,64", "availableCapacity": "32,56", "contact": "einspeiser@linznetz.at, +43 (0) 732 3403 3698", "updatedOn": 1761778800, "latitude": 48.324698029223, "longitude": 14.299121, "website": "https://www.linznetz.at/portal/de/home/strom/mein_stromanschluss/erzeugungsanlage_anschliessen/einspeisekapazitaeten"}, {"uid": 22053, "state": "Ober\u00f6sterreich", "substationName": "UW Linz Nord (25kV)", "networkOperator": "Linz Netz GmbH", "bookedCapacity": "4,67", "availableCapacity": "12,89", "contact": "einspeiser@linznetz.at, +43 (0) 732 3403 3698", "updatedOn": 1761778800, "latitude": 48.324698029223, "longitude": 14.300462, "website": "https://www.linznetz.at/portal/de/home/strom/mein_stromanschluss/erzeugungsanlage_anschliessen/einspeisekapazitaeten"}, {"uid": 22054, "state": "Ober\u00f6sterreich", "substationName": "UW Linz Nordwest", "networkOperator": "Linz Netz GmbH", "bookedCapacity": "0,95", "availableCapacity": "23,8", "contact": "einspeiser@linznetz.at, +43 (0) 732 3403 3698", "updatedOn": 1761778800, "latitude": 48.311125424952, "longitude": 14.276241, "website": "https://www.linznetz.at/portal/de/home/strom/mein_stromanschluss/erzeugungsanlage_anschliessen/einspeisekapazitaeten"}, {"uid": 22055, "state": "Ober\u00f6sterreich", "substationName": "Pichling", "networkOperator": "Linz Netz GmbH", "bookedCapacity": "1,1", "availableCapacity": "31,2", "contact": "einspeiser@linznetz.at, +43 (0) 732 3403 3698", "updatedOn": 1761778800, "latitude": 48.260338984475, "longitude": 14.375202189373, "website": "https://www.linznetz.at/portal/de/home/strom/mein_stromanschluss/erzeugungsanlage_anschliessen/einspeisekapazitaeten"}, {"uid": 22056, "state": "Ober\u00f6sterreich", "substationName": "UW Rainbach", "networkOperator": "Linz Netz GmbH", "bookedCapacity": "11,48", "availableCapacity": "2,59", "contact": "einspeiser@linznetz.at, +43 (0) 732 3403 3698", "updatedOn": 1761778800, "latitude": 48.533683225084, "longitude": 14.488888, "website": "https://www.linznetz.at/portal/de/home/strom/mein_stromanschluss/erzeugungsanlage_anschliessen/einspeisekapazitaeten"}, {"uid": 22057, "state": "Ober\u00f6sterreich", "substationName": "UW Wattstrasse", "networkOperator": "Linz Netz GmbH", "bookedCapacity": "5,13", "availableCapacity": "29,96", "contact": "einspeiser@linznetz.at, +43 (0) 732 3403 3698", "updatedOn": 1761778800, "latitude": 48.245942128466, "longitude": 14.26611, "website": "https://www.linznetz.at/portal/de/home/strom/mein_stromanschluss/erzeugungsanlage_anschliessen/einspeisekapazitaeten"}, {"uid": 22058, "state": "Ober\u00f6sterreich", "substationName": "UW Wienerstrasse", "networkOperator": "Linz Netz GmbH", "bookedCapacity": "1,78", "availableCapacity": 0, "contact": "einspeiser@linznetz.at, +43 (0) 732 3403 3698", "updatedOn": 1761778800, "latitude": 48.283051108632, "longitude": 14.310111, "website": "https://www.linznetz.at/portal/de/home/strom/mein_stromanschluss/erzeugungsanlage_anschliessen/einspeisekapazitaeten"}, {"uid": 22059, "state": "Ober\u00f6sterreich", "substationName": "UW Zentrum", "networkOperator": "Linz Netz GmbH", "bookedCapacity": "1,98", "availableCapacity": "33,22", "contact": "einspeiser@linznetz.at, +43 (0) 732 3403 3698", "updatedOn": 1761778800, "latitude": 48.291799750709, "longitude": 14.286098, "website": "https://www.linznetz.at/portal/de/home/strom/mein_stromanschluss/erzeugungsanlage_anschliessen/einspeisekapazitaeten"}, {"uid": 22060, "state": "Ober\u00f6sterreich", "substationName": "UW AIGERDING", "networkOperator": "Netz Ober\u00f6sterreich GmbH", "bookedCapacity": "27,67", "availableCapacity": 0, "contact": "service@netzooe.at, +43 05 9070", "updatedOn": 1759269600, "latitude": 48.44831, "longitude": 13.44937, "website": "https://netto.netzooe.at/netto/connectClient"}, {"uid": 22061, "state": "Ober\u00f6sterreich", "substationName": "UW ANTIESENHOFEN", "networkOperator": "Netz Ober\u00f6sterreich GmbH", "bookedCapacity": "26,69", "availableCapacity": "6,27", "contact": "service@netzooe.at, +43 05 9070", "updatedOn": 1759269600, "latitude": 48.3502, "longitude": 13.39531, "website": "https://netto.netzooe.at/netto/connectClient"}, {"uid": 22062, "state": "Ober\u00f6sterreich", "substationName": "UW BAD HALL", "networkOperator": "Netz Ober\u00f6sterreich GmbH", "bookedCapacity": "44,33", "availableCapacity": 0, "contact": "service@netzooe.at, +43 05 9070", "updatedOn": 1759269600, "latitude": 48.04866, "longitude": 14.2082, "website": "https://netto.netzooe.at/netto/connectClient"}, {"uid": 22063, "state": "Ober\u00f6sterreich", "substationName": "UW EFERDING", "networkOperator": "Netz Ober\u00f6sterreich GmbH", "bookedCapacity": "20,61", "availableCapacity": "2,3", "contact": "service@netzooe.at, +43 05 9070", "updatedOn": 1759269600, "latitude": 48.30288, "longitude": 14.00774, "website": "https://netto.netzooe.at/netto/connectClient"}, {"uid": 22064, "state": "Ober\u00f6sterreich", "substationName": "UW FELDKIRCHEN", "networkOperator": "Netz Ober\u00f6sterreich GmbH", "bookedCapacity": "7,25", "availableCapacity": "4,39", "contact": "service@netzooe.at, +43 05 9070", "updatedOn": 1759269600, "latitude": 48.34965, "longitude": 14.07985, "website": "https://netto.netzooe.at/netto/connectClient"}, {"uid": 22065, "state": "Ober\u00f6sterreich", "substationName": "UW FRANKENMARKT", "networkOperator": "Netz Ober\u00f6sterreich GmbH", "bookedCapacity": "16,67", "availableCapacity": "12,33", "contact": "service@netzooe.at, +43 05 9070", "updatedOn": 1759269600, "latitude": 47.97959, "longitude": 13.38597, "website": "https://netto.netzooe.at/netto/connectClient"}, {"uid": 22066, "state": "Ober\u00f6sterreich", "substationName": "UW GMUNDEN", "networkOperator": "Netz Ober\u00f6sterreich GmbH", "bookedCapacity": "5,88", "availableCapacity": "23,95", "contact": "service@netzooe.at, +43 05 9070", "updatedOn": 1759269600, "latitude": 47.92369, "longitude": 13.78547, "website": "https://netto.netzooe.at/netto/connectClient"}, {"uid": 22067, "state": "Ober\u00f6sterreich", "substationName": "UW GRIESKIRCHEN", "networkOperator": "Netz Ober\u00f6sterreich GmbH", "bookedCapacity": "29,91", "availableCapacity": 0, "contact": "service@netzooe.at, +43 05 9070", "updatedOn": 1759269600, "latitude": 48.23629, "longitude": 13.81881, "website": "https://netto.netzooe.at/netto/connectClient"}, {"uid": 22068, "state": "Ober\u00f6sterreich", "substationName": "UW GROSZRAMING", "networkOperator": "Netz Ober\u00f6sterreich GmbH", "bookedCapacity": "7,84", "availableCapacity": "6,06", "contact": "service@netzooe.at, +43 05 9070", "updatedOn": 1759269600, "latitude": 47.89225, "longitude": 14.51652, "website": "https://netto.netzooe.at/netto/connectClient"}, {"uid": 22069, "state": "Ober\u00f6sterreich", "substationName": "UW GUNDERTSHAUSEN", "networkOperator": "Netz Ober\u00f6sterreich GmbH", "bookedCapacity": "8,51", "availableCapacity": "9,64", "contact": "service@netzooe.at, +43 05 9070", "updatedOn": 1759269600, "latitude": 48.09673, "longitude": 12.99158, "website": "https://netto.netzooe.at/netto/connectClient"}, {"uid": 22070, "state": "Ober\u00f6sterreich", "substationName": "UW HOERSCHING", "networkOperator": "Netz Ober\u00f6sterreich GmbH", "bookedCapacity": "38,46", "availableCapacity": "11,5", "contact": "service@netzooe.at, +43 05 9070", "updatedOn": 1759269600, "latitude": 48.20758, "longitude": 14.16849, "website": "https://netto.netzooe.at/netto/connectClient"}, {"uid": 22071, "state": "Ober\u00f6sterreich", "substationName": "UW JAHRSDORF", "networkOperator": "Netz Ober\u00f6sterreich GmbH", "bookedCapacity": "36,16", "availableCapacity": 0, "contact": "service@netzooe.at, +43 05 9070", "updatedOn": 1759269600, "latitude": 48.25429, "longitude": 13.07997, "website": "https://netto.netzooe.at/netto/connectClient"}, {"uid": 22072, "state": "Ober\u00f6sterreich", "substationName": "UW KIRCHDORF", "networkOperator": "Netz Ober\u00f6sterreich GmbH", "bookedCapacity": "28,74", "availableCapacity": "5,55", "contact": "service@netzooe.at, +43 05 9070", "updatedOn": 1759269600, "latitude": 47.90696, "longitude": 14.11211, "website": "https://netto.netzooe.at/netto/connectClient"}, {"uid": 22073, "state": "Ober\u00f6sterreich", "substationName": "UW KLAUS", "networkOperator": "Netz Ober\u00f6sterreich GmbH", "bookedCapacity": "7,09", "availableCapacity": 0, "contact": "service@netzooe.at, +43 05 9070", "updatedOn": 1759269600, "latitude": 47.8215, "longitude": 14.16324, "website": "https://netto.netzooe.at/netto/connectClient"}, {"uid": 22074, "state": "Ober\u00f6sterreich", "substationName": "UW KREMSMUENSTER", "networkOperator": "Netz Ober\u00f6sterreich GmbH", "bookedCapacity": "35,38", "availableCapacity": "0,41", "contact": "service@netzooe.at, +43 05 9070", "updatedOn": 1759269600, "latitude": 48.03994, "longitude": 14.12343, "website": "https://netto.netzooe.at/netto/connectClient"}, {"uid": 22075, "state": "Ober\u00f6sterreich", "substationName": "UW LAMBACH", "networkOperator": "Netz Ober\u00f6sterreich GmbH", "bookedCapacity": "25,59", "availableCapacity": 0, "contact": "service@netzooe.at, +43 05 9070", "updatedOn": 1759269600, "latitude": 48.10393, "longitude": 13.90067, "website": "https://netto.netzooe.at/netto/connectClient"}, {"uid": 22076, "state": "Ober\u00f6sterreich", "substationName": "UW LENGAU", "networkOperator": "Netz Ober\u00f6sterreich GmbH", "bookedCapacity": "6,54", "availableCapacity": 0, "contact": "service@netzooe.at, +43 05 9070", "updatedOn": 1759269600, "latitude": 47.98761, "longitude": 13.23208, "website": "https://netto.netzooe.at/netto/connectClient"}, {"uid": 22077, "state": "Ober\u00f6sterreich", "substationName": "UW MARCHTRENK", "networkOperator": "Netz Ober\u00f6sterreich GmbH", "bookedCapacity": "7,56", "availableCapacity": 0, "contact": "service@netzooe.at, +43 05 9070", "updatedOn": 1759269600, "latitude": 48.17256, "longitude": 14.09967, "website": "https://netto.netzooe.at/netto/connectClient"}, {"uid": 22078, "state": "Ober\u00f6sterreich", "substationName": "UW MATTIGHOFEN", "networkOperator": "Netz Ober\u00f6sterreich GmbH", "bookedCapacity": "22,77", "availableCapacity": "0,92", "contact": "service@netzooe.at, +43 05 9070", "updatedOn": 1759269600, "latitude": 48.12056, "longitude": 13.1332, "website": "https://netto.netzooe.at/netto/connectClient"}, {"uid": 22079, "state": "Ober\u00f6sterreich", "substationName": "UW OHLSDORF", "networkOperator": "Netz Ober\u00f6sterreich GmbH", "bookedCapacity": "14,67", "availableCapacity": 0, "contact": "service@netzooe.at, +43 05 9070", "updatedOn": 1759269600, "latitude": 47.97039, "longitude": 13.79754, "website": "https://netto.netzooe.at/netto/connectClient"}, {"uid": 22080, "state": "Ober\u00f6sterreich", "substationName": "UW PARTENSTEIN", "networkOperator": "Netz Ober\u00f6sterreich GmbH", "bookedCapacity": "26,62", "availableCapacity": 0, "contact": "service@netzooe.at, +43 05 9070", "updatedOn": 1759269600, "latitude": 48.43376, "longitude": 13.98668, "website": "https://netto.netzooe.at/netto/connectClient"}, {"uid": 22081, "state": "Ober\u00f6sterreich", "substationName": "UW PFANDL", "networkOperator": "Netz Ober\u00f6sterreich GmbH", "bookedCapacity": "1,41", "availableCapacity": "35,01", "contact": "service@netzooe.at, +43 05 9070", "updatedOn": 1759269600, "latitude": 47.71763, "longitude": 13.59642, "website": "https://netto.netzooe.at/netto/connectClient"}, {"uid": 22082, "state": "Ober\u00f6sterreich", "substationName": "UW PUCHBERG", "networkOperator": "Netz Ober\u00f6sterreich GmbH", "bookedCapacity": "15,72", "availableCapacity": "6,54", "contact": "service@netzooe.at, +43 05 9070", "updatedOn": 1759269600, "latitude": 48.18348, "longitude": 14.00561, "website": "https://netto.netzooe.at/netto/connectClient"}, {"uid": 22083, "state": "Ober\u00f6sterreich", "substationName": "UW PYHRN", "networkOperator": "Netz Ober\u00f6sterreich GmbH", "bookedCapacity": "3,52", "availableCapacity": "22,43", "contact": "service@netzooe.at, +43 05 9070", "updatedOn": 1759269600, "latitude": 47.67861, "longitude": 14.3298, "website": "https://netto.netzooe.at/netto/connectClient"}, {"uid": 22084, "state": "Ober\u00f6sterreich", "substationName": "UW RAAB", "networkOperator": "Netz Ober\u00f6sterreich GmbH", "bookedCapacity": "19,82", "availableCapacity": "4,48", "contact": "service@netzooe.at, +43 05 9070", "updatedOn": 1759269600, "latitude": 48.35418, "longitude": 13.62418, "website": "https://netto.netzooe.at/netto/connectClient"}, {"uid": 22085, "state": "Ober\u00f6sterreich", "substationName": "UW RANNA", "networkOperator": "Netz Ober\u00f6sterreich GmbH", "bookedCapacity": "29,99", "availableCapacity": 0, "contact": "service@netzooe.at, +43 05 9070", "updatedOn": 1759269600, "latitude": 48.49012, "longitude": 13.7514, "website": "https://netto.netzooe.at/netto/connectClient"}, {"uid": 22086, "state": "Ober\u00f6sterreich", "substationName": "UW RANSHOFEN", "networkOperator": "Netz Ober\u00f6sterreich GmbH", "bookedCapacity": "19,9", "availableCapacity": 0, "contact": "service@netzooe.at, +43 05 9070", "updatedOn": 1759269600, "latitude": 48.22095, "longitude": 13.0354, "website": "https://netto.netzooe.at/netto/connectClient"}, {"uid": 22087, "state": "Ober\u00f6sterreich", "substationName": "UW REGAU", "networkOperator": "Netz Ober\u00f6sterreich GmbH", "bookedCapacity": "6,77", "availableCapacity": "12,05", "contact": "service@netzooe.at, +43 05 9070", "updatedOn": 1759269600, "latitude": 47.98701, "longitude": 13.71635, "website": "https://netto.netzooe.at/netto/connectClient"}, {"uid": 22088, "state": "Ober\u00f6sterreich", "substationName": "UW RIED", "networkOperator": "Netz Ober\u00f6sterreich GmbH", "bookedCapacity": "11,01", "availableCapacity": "18,7", "contact": "service@netzooe.at, +43 05 9070", "updatedOn": 1759269600, "latitude": 48.21125, "longitude": 13.51476, "website": "https://netto.netzooe.at/netto/connectClient"}, {"uid": 22089, "state": "Ober\u00f6sterreich", "substationName": "UW RIEDERSBACH", "networkOperator": "Netz Ober\u00f6sterreich GmbH", "bookedCapacity": "6,29", "availableCapacity": "21,4", "contact": "service@netzooe.at, +43 05 9070", "updatedOn": 1759269600, "latitude": 48.02941, "longitude": 12.84163, "website": "https://netto.netzooe.at/netto/connectClient"}, {"uid": 22090, "state": "Ober\u00f6sterreich", "substationName": "UW ROHRBACH", "networkOperator": "Netz Ober\u00f6sterreich GmbH", "bookedCapacity": "24,79", "availableCapacity": 0, "contact": "service@netzooe.at, +43 05 9070", "updatedOn": 1759269600, "latitude": 48.55598, "longitude": 13.9943, "website": "https://netto.netzooe.at/netto/connectClient"}, {"uid": 22091, "state": "Ober\u00f6sterreich", "substationName": "UW ROSSBACH", "networkOperator": "Netz Ober\u00f6sterreich GmbH", "bookedCapacity": "29,87", "availableCapacity": 0, "contact": "service@netzooe.at, +43 05 9070", "updatedOn": 1759269600, "latitude": 48.19743, "longitude": 13.27164, "website": "https://netto.netzooe.at/netto/connectClient"}, {"uid": 22092, "state": "Ober\u00f6sterreich", "substationName": "UW ROTTENBACH", "networkOperator": "Netz Ober\u00f6sterreich GmbH", "bookedCapacity": "17,85", "availableCapacity": "21,1", "contact": "service@netzooe.at, +43 05 9070", "updatedOn": 1759269600, "latitude": 48.21193, "longitude": 13.67165, "website": "https://netto.netzooe.at/netto/connectClient"}, {"uid": 22093, "state": "Ober\u00f6sterreich", "substationName": "UW SATTLEDT", "networkOperator": "Netz Ober\u00f6sterreich GmbH", "bookedCapacity": "10,58", "availableCapacity": 0, "contact": "service@netzooe.at, +43 05 9070", "updatedOn": 1759269600, "latitude": 48.08358, "longitude": 14.05201, "website": "https://netto.netzooe.at/netto/connectClient"}, {"uid": 22094, "state": "Ober\u00f6sterreich", "substationName": "UW STEEG", "networkOperator": "Netz Ober\u00f6sterreich GmbH", "bookedCapacity": "2,03", "availableCapacity": "24", "contact": "service@netzooe.at, +43 05 9070", "updatedOn": 1759269600, "latitude": 47.60801, "longitude": 13.63271, "website": "https://netto.netzooe.at/netto/connectClient"}, {"uid": 22095, "state": "Ober\u00f6sterreich", "substationName": "UW STEINFELDEN", "networkOperator": "Netz Ober\u00f6sterreich GmbH", "bookedCapacity": "3,35", "availableCapacity": "5,68", "contact": "service@netzooe.at, +43 05 9070", "updatedOn": 1759269600, "latitude": 47.92386, "longitude": 13.99079, "website": "https://netto.netzooe.at/netto/connectClient"}, {"uid": 22096, "state": "Ober\u00f6sterreich", "substationName": "UW STEINKOGL", "networkOperator": "Netz Ober\u00f6sterreich GmbH", "bookedCapacity": "6,47", "availableCapacity": "31,89", "contact": "service@netzooe.at, +43 05 9070", "updatedOn": 1759269600, "latitude": 47.78422, "longitude": 13.73934, "website": "https://netto.netzooe.at/netto/connectClient"}, {"uid": 22097, "state": "Ober\u00f6sterreich", "substationName": "UW STEYR", "networkOperator": "Netz Ober\u00f6sterreich GmbH", "bookedCapacity": "10,75", "availableCapacity": "62,23", "contact": "service@netzooe.at, +43 05 9070", "updatedOn": 1759269600, "latitude": 48.04326, "longitude": 14.43885, "website": "https://netto.netzooe.at/netto/connectClient"}, {"uid": 22098, "state": "Ober\u00f6sterreich", "substationName": "UW STEYR NORD", "networkOperator": "Netz Ober\u00f6sterreich GmbH", "bookedCapacity": "17,88", "availableCapacity": 0, "contact": "service@netzooe.at, +43 05 9070", "updatedOn": 1759269600, "latitude": 48.06808, "longitude": 14.42331, "website": "https://netto.netzooe.at/netto/connectClient"}, {"uid": 22099, "state": "Ober\u00f6sterreich", "substationName": "UW TILLYSBURG", "networkOperator": "Netz Ober\u00f6sterreich GmbH", "bookedCapacity": "34,52", "availableCapacity": 0, "contact": "service@netzooe.at, +43 05 9070", "updatedOn": 1759269600, "latitude": 48.21255, "longitude": 14.42046, "website": "https://netto.netzooe.at/netto/connectClient"}, {"uid": 22100, "state": "Ober\u00f6sterreich", "substationName": "UW TIMELKAM", "networkOperator": "Netz Ober\u00f6sterreich GmbH", "bookedCapacity": "40,44", "availableCapacity": 0, "contact": "service@netzooe.at, +43 05 9070", "updatedOn": 1759269600, "latitude": 48.01062, "longitude": 13.58914, "website": "https://netto.netzooe.at/netto/connectClient"}, {"uid": 22101, "state": "Ober\u00f6sterreich", "substationName": "UW TRAUN PUCKING", "networkOperator": "Netz Ober\u00f6sterreich GmbH", "bookedCapacity": "38,07", "availableCapacity": "2,79", "contact": "service@netzooe.at, +43 05 9070", "updatedOn": 1759269600, "latitude": 48.20527, "longitude": 14.22358, "website": "https://netto.netzooe.at/netto/connectClient"}, {"uid": 22102, "state": "Ober\u00f6sterreich", "substationName": "UW TRAUNFALL", "networkOperator": "Netz Ober\u00f6sterreich GmbH", "bookedCapacity": "26,25", "availableCapacity": 0, "contact": "service@netzooe.at, +43 05 9070", "updatedOn": 1759269600, "latitude": 48.01908, "longitude": 13.80369, "website": "https://netto.netzooe.at/netto/connectClient"}, {"uid": 22103, "state": "Ober\u00f6sterreich", "substationName": "UW UNTERACH", "networkOperator": "Netz Ober\u00f6sterreich GmbH", "bookedCapacity": "3,48", "availableCapacity": "29,94", "contact": "service@netzooe.at, +43 05 9070", "updatedOn": 1759269600, "latitude": 47.80463, "longitude": 13.45636, "website": "https://netto.netzooe.at/netto/connectClient"}, {"uid": 22104, "state": "Ober\u00f6sterreich", "substationName": "UW VOECKLABRUCK", "networkOperator": "Netz Ober\u00f6sterreich GmbH", "bookedCapacity": "14,23", "availableCapacity": "16,75", "contact": "service@netzooe.at, +43 05 9070", "updatedOn": 1759269600, "latitude": 47.99127, "longitude": 13.6587, "website": "https://netto.netzooe.at/netto/connectClient"}, {"uid": 22105, "state": "Ober\u00f6sterreich", "substationName": "UW VORCHDORF", "networkOperator": "Netz Ober\u00f6sterreich GmbH", "bookedCapacity": "5,38", "availableCapacity": "18,44", "contact": "service@netzooe.at, +43 05 9070", "updatedOn": 1759269600, "latitude": 48.00466, "longitude": 13.90662, "website": "https://netto.netzooe.at/netto/connectClient"}, {"uid": 22106, "state": "Ober\u00f6sterreich", "substationName": "UW WEGSCHEID", "networkOperator": "Netz Ober\u00f6sterreich GmbH", "bookedCapacity": "9,76", "availableCapacity": "26,2", "contact": "service@netzooe.at, +43 05 9070", "updatedOn": 1759269600, "latitude": 48.24694, "longitude": 14.2685, "website": "https://netto.netzooe.at/netto/connectClient"}, {"uid": 22107, "state": "Ober\u00f6sterreich", "substationName": "UW LANGSTADL", "networkOperator": "Energie Ried GmbH", "bookedCapacity": "18,05", "availableCapacity": "4,5", "contact": "office@energie-ried.at, +43 (0)7752 911", "updatedOn": 1760652000, "latitude": 48.21137, "longitude": 13.51469, "website": "https://www.energie-ried.at/strom/strom-netzbetreiber/2023_q1_freie_netzkapazitaet_homepage.pdf/view"}, {"uid": 22108, "state": "Ober\u00f6sterreich", "substationName": "UW Wels Mitte", "networkOperator": "eww ag", "bookedCapacity": "1,72", "availableCapacity": "35,49", "contact": "planung.technik@eww.at; +43 7242 493-000", "updatedOn": 1761692400, "latitude": 48.161306499, "longitude": 14.029334149131, "website": "https://www.eww.at/"},