[{"id": 252, "lat": 48.222287, "lon": 15.623049, "name": "St. P\u00f6lten I", "turbines": 1, "mw_per_turbine": 0.11, "total_mw": 0.11, "year": 1994, "info": "Type: Seewind, S 20/110 - Nabenh\u00f6he: 36, Rotordurchmesser: 20", "households": "Dieser Windpark liefert Strom f\u00fcr ca. 63 Haushalte."}, {"id": 251, "lat": 48.159961, "lon": 16.73546, "name": "Wagram/Donau", "turbines": 1, "mw_per_turbine": 0.15, "total_mw": 0.15, "year": 1994, "info": "Type: Nordex, N27/150 - Nabenh\u00f6he: 31, Rotordurchmesser: 27", "households": "Dieser Windpark liefert Strom f\u00fcr ca. 86 Haushalte."}, {"id": 253, "lat": 48.085344, "lon": 15.757397, "name": "Michelbach", "turbines": 1, "mw_per_turbine": 0.225, "total_mw": 0.225, "year": 1995, "info": "Type: Vestas, V29/225 - Nabenh\u00f6he: 31, Rotordurchmesser: 29", "households": "Dieser Windpark liefert Strom f\u00fcr ca. 128 Haushalte."}, {"id": 276, "lat": 48.189805, "lon": 15.768824, "name": "B\u00f6heimkirchen", "turbines": 1, "mw_per_turbine": 0.11, "total_mw": 0.11, "year": 1996, "info": "Type: Seewind, S 20/110 - Nabenh\u00f6he: 40, Rotordurchmesser: 22", "households": "Dieser Windpark liefert Strom f\u00fcr ca. 63 Haushalte."}, {"id": 270, "lat": 48.143942, "lon": 13.51991, "name": "Eberschwang", "turbines": 2, "mw_per_turbine": 0.5, "total_mw": 1.0, "year": 1996, "info": "Type: Enercon, E40/5.40 - Nabenh\u00f6he: 40, Rotordurchmesser: 40.3", "households": "Dieser Windpark liefert Strom f\u00fcr ca. 570 Haushalte."}, {"id": 270, "lat": 48.145384, "lon": 13.518142, "name": "Eberschwang", "turbines": 2, "mw_per_turbine": 0.5, "total_mw": 1.0, "year": 1996, "info": "Type: Enercon, E40/5.40 - Nabenh\u00f6he: 40, Rotordurchmesser: 40.3", "households": "Dieser Windpark liefert Strom f\u00fcr ca. 570 Haushalte."}, {"id": 277, "lat": 48.519888, "lon": 15.465372, "name": "Gf\u00f6hl", "turbines": 1, "mw_per_turbine": 0.2, "total_mw": 0.2, "year": 1996, "info": "Type: Enercon, E30/2.30 - Nabenh\u00f6he: 65, Rotordurchmesser: 29.6", "households": "Dieser Windpark liefert Strom f\u00fcr ca. 114 Haushalte."}, {"id": 265, "lat": 48.247666, "lon": 16.643921, "name": "Glinzendorf", "turbines": 1, "mw_per_turbine": 0.25, "total_mw": 0.25, "year": 1996, "info": "Type: Nordex, N29/250 - Nabenh\u00f6he: 65, Rotordurchmesser: 29", "households": "Dieser Windpark liefert Strom f\u00fcr ca. 143 Haushalte."}, {"id": 256, "lat": 48.235437, "lon": 16.901598, "name": "Groissenbrunn II", "turbines": 1, "mw_per_turbine": 0.25, "total_mw": 0.25, "year": 1996, "info": "Type: Nordex, N29 - Nabenh\u00f6he: 31, Rotordurchmesser: 30", "households": "Dieser Windpark liefert Strom f\u00fcr ca. 143 Haushalte."}, {"id": 262, "lat": 48.337292, "lon": 16.4449, "name": "Hagenbrunn I", "turbines": 1, "mw_per_turbine": 0.6, "total_mw": 0.6, "year": 1996, "info": "Type: Vestas, V44/600 - Nabenh\u00f6he: 63, Rotordurchmesser: 44", "households": "Dieser Windpark liefert Strom f\u00fcr ca. 342 Haushalte."}, {"id": 257, "lat": 47.9509, "lon": 14.49142, "name": "Laussa", "turbines": 3, "mw_per_turbine": 0.6, "total_mw": 1.7999999999999998, "year": 1996, "info": "Type: Tacke, TW600 - Nabenh\u00f6he: 50, Rotordurchmesser: 43", "households": "Dieser Windpark liefert Strom f\u00fcr ca. 1026 Haushalte."}, {"id": 257, "lat": 47.95228, "lon": 14.490152, "name": "Laussa", "turbines": 3, "mw_per_turbine": 0.6, "total_mw": 1.7999999999999998, "year": 1996, "info": "Type: Tacke, TW600 - Nabenh\u00f6he: 50, Rotordurchmesser: 43", "households": "Dieser Windpark liefert Strom f\u00fcr ca. 1026 Haushalte."}, {"id": 257, "lat": 47.95205, "lon": 14.49374, "name": "Laussa", "turbines": 3, "mw_per_turbine": 0.6, "total_mw": 1.7999999999999998, "year": 1996, "info": "Type: Tacke, TW600 - Nabenh\u00f6he: 50, Rotordurchmesser: 43", "households": "Dieser Windpark liefert Strom f\u00fcr ca. 1026 Haushalte."}, {"id": 258, "lat": 48.249468, "lon": 15.738877, "name": "Maria Jeutendorf", "turbines": 1, "mw_per_turbine": 0.11, "total_mw": 0.11, "year": 1996, "info": "Type: Seewind, S 20/110 - Nabenh\u00f6he: 50, Rotordurchmesser: 22", "households": "Dieser Windpark liefert Strom f\u00fcr ca. 63 Haushalte."}, {"id": 273, "lat": 48.177596, "lon": 16.652, "name": "Matzneusiedl", "turbines": 1, "mw_per_turbine": 0.5, "total_mw": 0.5, "year": 1996, "info": "Type: Enercon, E40/5.40 - Nabenh\u00f6he: 31, Rotordurchmesser: 40.3", "households": "Dieser Windpark liefert Strom f\u00fcr ca. 285 Haushalte."}, {"id": 260, "lat": 48.410096, "lon": 15.234792, "name": "Ottenschlag", "turbines": 1, "mw_per_turbine": 0.5, "total_mw": 0.5, "year": 1996, "info": "Type: Enercon, E40/5.40 - Nabenh\u00f6he: 50, Rotordurchmesser: 40.3", "households": "Dieser Windpark liefert Strom f\u00fcr ca. 285 Haushalte."}, {"id": 275, "lat": 48.112945, "lon": 15.583468, "name": "P\u00f6mmern", "turbines": 1, "mw_per_turbine": 0.2, "total_mw": 0.2, "year": 1996, "info": "Type: Enercon, E30/2.30 - Nabenh\u00f6he: 63, Rotordurchmesser: 29.6", "households": "Dieser Windpark liefert Strom f\u00fcr ca. 114 Haushalte."}, {"id": 259, "lat": 48.094525, "lon": 15.151319, "name": "Purgstall-Hochrie\u00df", "turbines": 1, "mw_per_turbine": 0.25, "total_mw": 0.25, "year": 1996, "info": "Type: Lagerwey, LW250-30 - Nabenh\u00f6he: 50, Rotordurchmesser: 30", "households": "Dieser Windpark liefert Strom f\u00fcr ca. 143 Haushalte."}, {"id": 271, "lat": 48.519227, "lon": 15.449505, "name": "Reittern", "turbines": 1, "mw_per_turbine": 0.5, "total_mw": 0.5, "year": 1996, "info": "Type: Enercon, E40/5.40 - Nabenh\u00f6he: 65, Rotordurchmesser: 40.3", "households": "Dieser Windpark liefert Strom f\u00fcr ca. 285 Haushalte."}, {"id": 267, "lat": 48.752055, "lon": 16.009535, "name": "Retz", "turbines": 1, "mw_per_turbine": 0.25, "total_mw": 0.25, "year": 1996, "info": "Type: Nordex, N29/250 - Nabenh\u00f6he: 50, Rotordurchmesser: 30", "households": "Dieser Windpark liefert Strom f\u00fcr ca. 143 Haushalte."}, {"id": 264, "lat": 48.75696, "lon": 15.19655, "name": "Vitis", "turbines": 1, "mw_per_turbine": 0.11, "total_mw": 0.11, "year": 1996, "info": "Type: Seewind, S 20/110 - Nabenh\u00f6he: 31, Rotordurchmesser: 22", "households": "Dieser Windpark liefert Strom f\u00fcr ca. 63 Haushalte."}, {"id": 274, "lat": 48.109617, "lon": 16.324581, "name": "V\u00f6sendorf I", "turbines": 1, "mw_per_turbine": 0.6, "total_mw": 0.6, "year": 1996, "info": "Type: Vestas, V44/600 - Nabenh\u00f6he: 63, Rotordurchmesser: 44", "households": "Dieser Windpark liefert Strom f\u00fcr ca. 342 Haushalte."}, {"id": 263, "lat": 48.111416, "lon": 16.325172, "name": "V\u00f6sendorf II", "turbines": 1, "mw_per_turbine": 0.6, "total_mw": 0.6, "year": 1996, "info": "Type: Vestas, V44/600 - Nabenh\u00f6he: 50, Rotordurchmesser: 44", "households": "Dieser Windpark liefert Strom f\u00fcr ca. 342 Haushalte."}, {"id": 268, "lat": 48.081896, "lon": 15.585639, "name": "Wilhelmsburg", "turbines": 1, "mw_per_turbine": 0.25, "total_mw": 0.25, "year": 1996, "info": "Type: Lagerwey, LW250-30 - Nabenh\u00f6he: 50, Rotordurchmesser: 30", "households": "Dieser Windpark liefert Strom f\u00fcr ca. 143 Haushalte."}, {"id": 272, "lat": 48.372865, "lon": 16.507187, "name": "Wolkersdorf I", "turbines": 1, "mw_per_turbine": 0.5, "total_mw": 0.5, "year": 1996, "info": "Type: Enercon, E40/5.40 - Nabenh\u00f6he: 50, Rotordurchmesser: 40.3", "households": "Dieser Windpark liefert Strom f\u00fcr ca. 285 Haushalte."}, {"id": 282, "lat": 48.195739, "lon": 16.455536, "name": "Donauinsel", "turbines": 1, "mw_per_turbine": 0.23, "total_mw": 0.23, "year": 1997, "info": "Type: Enercon, E30/2.30 - Nabenh\u00f6he: 63, Rotordurchmesser: 30", "households": "Dieser Windpark liefert Strom f\u00fcr ca. 131 Haushalte."}, {"id": 286, "lat": 48.344791, "lon": 16.486061, "name": "Gerasdorf-Seyring I", "turbines": 1, "mw_per_turbine": 0.6, "total_mw": 0.6, "year": 1997, "info": "Type: NEG Micon, M1800-600/44 - Nabenh\u00f6he: 65, Rotordurchmesser: 44", "households": "Dieser Windpark liefert Strom f\u00fcr ca. 342 Haushalte."}, {"id": 281, "lat": 48.507073, "lon": 15.170491, "name": "Grafenschlag I", "turbines": 1, "mw_per_turbine": 0.6, "total_mw": 0.6, "year": 1997, "info": "Type: Vestas, V44/600 - Nabenh\u00f6he: 60, Rotordurchmesser: 44", "households": "Dieser Windpark liefert Strom f\u00fcr ca. 342 Haushalte."}, {"id": 492, "lat": 48.50531, "lon": 15.17117, "name": "Grafenschlag II", "turbines": 1, "mw_per_turbine": 0.6, "total_mw": 0.6, "year": 1997, "info": "Type: Vestas, V44/600 - Nabenh\u00f6he: 134.95, Rotordurchmesser: 44", "households": "Dieser Windpark liefert Strom f\u00fcr ca. 342 Haushalte."}, {"id": 285, "lat": 48.232755, "lon": 16.905633, "name": "Groissenbrunn III", "turbines": 1, "mw_per_turbine": 0.5, "total_mw": 0.5, "year": 1997, "info": "Type: Enercon, E40/5.40 - Nabenh\u00f6he: 63, Rotordurchmesser: 40.3", "households": "Dieser Windpark liefert Strom f\u00fcr ca. 285 Haushalte."}, {"id": 279, "lat": 48.640196, "lon": 15.121087, "name": "Oberstrahlbach", "turbines": 3, "mw_per_turbine": 0.6, "total_mw": 1.7999999999999998, "year": 1997, "info": "Type: Vestas, V44/600 - Nabenh\u00f6he: 50, Rotordurchmesser: 44", "households": "Dieser Windpark liefert Strom f\u00fcr ca. 1026 Haushalte."}, {"id": 279, "lat": 48.637388, "lon": 15.123394, "name": "Oberstrahlbach", "turbines": 3, "mw_per_turbine": 0.6, "total_mw": 1.7999999999999998, "year": 1997, "info": "Type: Vestas, V44/600 - Nabenh\u00f6he: 50, Rotordurchmesser: 44", "households": "Dieser Windpark liefert Strom f\u00fcr ca. 1026 Haushalte."}, {"id": 279, "lat": 48.638323, "lon": 15.125922, "name": "Oberstrahlbach", "turbines": 3, "mw_per_turbine": 0.6, "total_mw": 1.7999999999999998, "year": 1997, "info": "Type: Vestas, V44/600 - Nabenh\u00f6he: 50, Rotordurchmesser: 44", "households": "Dieser Windpark liefert Strom f\u00fcr ca. 1026 Haushalte."}, {"id": 287, "lat": 46.60752, "lon": 12.946497, "name": "Pl\u00f6ckenpass", "turbines": 1, "mw_per_turbine": 0.5, "total_mw": 0.5, "year": 1997, "info": "Type: Enercon, E40/5.40 - Nabenh\u00f6he: 63, Rotordurchmesser: 40.3", "households": "Dieser Windpark liefert Strom f\u00fcr ca. 285 Haushalte."}, {"id": 596, "lat": 48.185217, "lon": 16.463849, "name": "Freudenau", "turbines": 1, "mw_per_turbine": 0.6, "total_mw": 0.6, "year": 1998, "info": "Type: NEG Micon, NM48/600 - Nabenh\u00f6he: 143, Rotordurchmesser: 48", "households": "Dieser Windpark liefert Strom f\u00fcr ca. 342 Haushalte."}, {"id": 288, "lat": 48.290286, "lon": 16.579681, "name": "Parbasdorf I", "turbines": 3, "mw_per_turbine": 0.6, "total_mw": 1.7999999999999998, "year": 1998, "info": "Type: Vestas, V44/600 - Nabenh\u00f6he: 50, Rotordurchmesser: 44", "households": "Dieser Windpark liefert Strom f\u00fcr ca. 1026 Haushalte."}, {"id": 288, "lat": 48.292117, "lon": 16.581321, "name": "Parbasdorf I", "turbines": 3, "mw_per_turbine": 0.6, "total_mw": 1.7999999999999998, "year": 1998, "info": "Type: Vestas, V44/600 - Nabenh\u00f6he: 50, Rotordurchmesser: 44", "households": "Dieser Windpark liefert Strom f\u00fcr ca. 1026 Haushalte."}, {"id": 291, "lat": 48.288292, "lon": 16.578176, "name": "Parbasdorf II", "turbines": 1, "mw_per_turbine": 0.6, "total_mw": 0.6, "year": 1998, "info": "Type: Vestas, V44/600 - Nabenh\u00f6he: 63, Rotordurchmesser: 44", "households": "Dieser Windpark liefert Strom f\u00fcr ca. 342 Haushalte."}, {"id": 292, "lat": 48.236398, "lon": 15.719644, "name": "Pottenbrunn I", "turbines": 5, "mw_per_turbine": 0.5, "total_mw": 2.5, "year": 1998, "info": "Type: Enercon, E40/5.40 - Nabenh\u00f6he: 63, Rotordurchmesser: 40.3", "households": "Dieser Windpark liefert Strom f\u00fcr ca. 1425 Haushalte."}, {"id": 292, "lat": 48.23688, "lon": 15.717336, "name": "Pottenbrunn I", "turbines": 5, "mw_per_turbine": 0.5, "total_mw": 2.5, "year": 1998, "info": "Type: Enercon, E40/5.40 - Nabenh\u00f6he: 63, Rotordurchmesser: 40.3", "households": "Dieser Windpark liefert Strom f\u00fcr ca. 1425 Haushalte."}, {"id": 292, "lat": 48.237246, "lon": 15.715151, "name": "Pottenbrunn I", "turbines": 5, "mw_per_turbine": 0.5, "total_mw": 2.5, "year": 1998, "info": "Type: Enercon, E40/5.40 - Nabenh\u00f6he: 63, Rotordurchmesser: 40.3", "households": "Dieser Windpark liefert Strom f\u00fcr ca. 1425 Haushalte."}, {"id": 292, "lat": 48.237387, "lon": 15.712901, "name": "Pottenbrunn I", "turbines": 5, "mw_per_turbine": 0.5, "total_mw": 2.5, "year": 1998, "info": "Type: Enercon, E40/5.40 - Nabenh\u00f6he: 63, Rotordurchmesser: 40.3", "households": "Dieser Windpark liefert Strom f\u00fcr ca. 1425 Haushalte."}, {"id": 292, "lat": 48.236123, "lon": 15.721976, "name": "Pottenbrunn I", "turbines": 5, "mw_per_turbine": 0.5, "total_mw": 2.5, "year": 1998, "info": "Type: Enercon, E40/5.40 - Nabenh\u00f6he: 63, Rotordurchmesser: 40.3", "households": "Dieser Windpark liefert Strom f\u00fcr ca. 1425 Haushalte."}, {"id": 294, "lat": 48.508717, "lon": 14.349947, "name": "Schenkenfelden", "turbines": 2, "mw_per_turbine": 0.6, "total_mw": 1.2, "year": 1998, "info": "Type: NEG Micon, M1800-600/48 - Nabenh\u00f6he: 65, Rotordurchmesser: 48", "households": "Dieser Windpark liefert Strom f\u00fcr ca. 684 Haushalte."}, {"id": 294, "lat": 48.511104, "lon": 14.350454, "name": "Schenkenfelden", "turbines": 2, "mw_per_turbine": 0.6, "total_mw": 1.2, "year": 1998, "info": "Type: NEG Micon, M1800-600/48 - Nabenh\u00f6he: 65, Rotordurchmesser: 48", "households": "Dieser Windpark liefert Strom f\u00fcr ca. 684 Haushalte."}, {"id": 290, "lat": 48.49799, "lon": 16.3478, "name": "Simonsfeld", "turbines": 2, "mw_per_turbine": 0.6, "total_mw": 1.2, "year": 1998, "info": "Type: Vestas, V44/600 - Nabenh\u00f6he: 60, Rotordurchmesser: 44", "households": "Dieser Windpark liefert Strom f\u00fcr ca. 684 Haushalte."}, {"id": 290, "lat": 48.49951, "lon": 16.3462, "name": "Simonsfeld", "turbines": 2, "mw_per_turbine": 0.6, "total_mw": 1.2, "year": 1998, "info": "Type: Vestas, V44/600 - Nabenh\u00f6he: 60, Rotordurchmesser: 44", "households": "Dieser Windpark liefert Strom f\u00fcr ca. 684 Haushalte."}, {"id": 303, "lat": 48.413066, "lon": 16.22636, "name": "Leitzersdorf I", "turbines": 2, "mw_per_turbine": 1, "total_mw": 2, "year": 1999, "info": "Type: Bonus, B54/1000 - Nabenh\u00f6he: 60, Rotordurchmesser: 54", "households": "Dieser Windpark liefert Strom f\u00fcr ca. 1140 Haushalte."}, {"id": 303, "lat": 48.417763, "lon": 16.229593, "name": "Leitzersdorf I", "turbines": 2, "mw_per_turbine": 1, "total_mw": 2, "year": 1999, "info": "Type: Bonus, B54/1000 - Nabenh\u00f6he: 60, Rotordurchmesser: 54", "households": "Dieser Windpark liefert Strom f\u00fcr ca. 1140 Haushalte."}, {"id": 301, "lat": 48.414632, "lon": 16.227438, "name": "Leitzersdorf II", "turbines": 2, "mw_per_turbine": 1, "total_mw": 2, "year": 1999, "info": "Type: Bonus, B54/1000 - Nabenh\u00f6he: 60, Rotordurchmesser: 54", "households": "Dieser Windpark liefert Strom f\u00fcr ca. 1140 Haushalte."}, {"id": 301, "lat": 48.416197, "lon": 16.228502, "name": "Leitzersdorf II", "turbines": 2, "mw_per_turbine": 1, "total_mw": 2, "year": 1999, "info": "Type: Bonus, B54/1000 - Nabenh\u00f6he: 60, Rotordurchmesser: 54", "households": "Dieser Windpark liefert Strom f\u00fcr ca. 1140 Haushalte."}, {"id": 299, "lat": 48.330876, "lon": 13.658186, "name": "Oberr\u00f6dham", "turbines": 3, "mw_per_turbine": 0.66, "total_mw": 1.98, "year": 1999, "info": "Type: Vestas, V47/660 - Nabenh\u00f6he: 63, Rotordurchmesser: 47", "households": "Dieser Windpark liefert Strom f\u00fcr ca. 1129 Haushalte."}, {"id": 299, "lat": 48.321813, "lon": 13.663832, "name": "Oberr\u00f6dham", "turbines": 3, "mw_per_turbine": 0.66, "total_mw": 1.98, "year": 1999, "info": "Type: Vestas, V47/660 - Nabenh\u00f6he: 63, Rotordurchmesser: 47", "households": "Dieser Windpark liefert Strom f\u00fcr ca. 1129 Haushalte."}, {"id": 299, "lat": 48.329129, "lon": 13.665349, "name": "Oberr\u00f6dham", "turbines": 3, "mw_per_turbine": 0.66, "total_mw": 1.98, "year": 1999, "info": "Type: Vestas, V47/660 - Nabenh\u00f6he: 63, Rotordurchmesser: 47", "households": "Dieser Windpark liefert Strom f\u00fcr ca. 1129 Haushalte."}, {"id": 297, "lat": 48.552125, "lon": 14.601572, "name": "Sp\u00f6rbichl", "turbines": 2, "mw_per_turbine": 0.66, "total_mw": 1.32, "year": 1999, "info": "Type: Vestas, V47/660 - Nabenh\u00f6he: 60, Rotordurchmesser: 47", "households": "Dieser Windpark liefert Strom f\u00fcr ca. 752 Haushalte."}, {"id": 297, "lat": 48.551673, "lon": 14.598567, "name": "Sp\u00f6rbichl", "turbines": 2, "mw_per_turbine": 0.66, "total_mw": 1.32, "year": 1999, "info": "Type: Vestas, V47/660 - Nabenh\u00f6he: 60, Rotordurchmesser: 47", "households": "Dieser Windpark liefert Strom f\u00fcr ca. 752 Haushalte."}, {"id": 321, "lat": 48.03686, "lon": 16.71976, "name": "Bruck/Leitha", "turbines": 5, "mw_per_turbine": 1.8, "total_mw": 9.0, "year": 2000, "info": "Type: Enercon, E66/18.70 - Nabenh\u00f6he: 70, Rotordurchmesser: 70.4", "households": "Dieser Windpark liefert Strom f\u00fcr ca. 5130 Haushalte."}, {"id": 321, "lat": 48.03734, "lon": 16.7257, "name": "Bruck/Leitha", "turbines": 5, "mw_per_turbine": 1.8, "total_mw": 9.0, "year": 2000, "info": "Type: Enercon, E66/18.70 - Nabenh\u00f6he: 70, Rotordurchmesser: 70.4", "households": "Dieser Windpark liefert Strom f\u00fcr ca. 5130 Haushalte."}, {"id": 321, "lat": 48.03012, "lon": 16.72599, "name": "Bruck/Leitha", "turbines": 5, "mw_per_turbine": 1.8, "total_mw": 9.0, "year": 2000, "info": "Type: Enercon, E66/18.70 - Nabenh\u00f6he: 70, Rotordurchmesser: 70.4", "households": "Dieser Windpark liefert Strom f\u00fcr ca. 5130 Haushalte."}, {"id": 321, "lat": 48.03283, "lon": 16.73252, "name": "Bruck/Leitha", "turbines": 5, "mw_per_turbine": 1.8, "total_mw": 9.0, "year": 2000, "info": "Type: Enercon, E66/18.70 - Nabenh\u00f6he: 70, Rotordurchmesser: 70.4", "households": "Dieser Windpark liefert Strom f\u00fcr ca. 5130 Haushalte."}, {"id": 321, "lat": 48.03382, "lon": 16.72641, "name": "Bruck/Leitha", "turbines": 5, "mw_per_turbine": 1.8, "total_mw": 9.0, "year": 2000, "info": "Type: Enercon, E66/18.70 - Nabenh\u00f6he: 70, Rotordurchmesser: 70.4", "households": "Dieser Windpark liefert Strom f\u00fcr ca. 5130 Haushalte."}, {"id": 318, "lat": 47.967254, "lon": 14.660216, "name": "Ertl", "turbines": 1, "mw_per_turbine": 0.5, "total_mw": 0.5, "year": 2000, "info": "Type: Enercon, E40/5.40 - Nabenh\u00f6he: 65, Rotordurchmesser: 40.3", "households": "Dieser Windpark liefert Strom f\u00fcr ca. 285 Haushalte."}, {"id": 319, "lat": 48.049581, "lon": 15.58973, "name": "Eschenau", "turbines": 2, "mw_per_turbine": 0.5, "total_mw": 1.0, "year": 2000, "info": "Type: Enercon, E40/5.40 - Nabenh\u00f6he: 65, Rotordurchmesser: 40.3", "households": "Dieser Windpark liefert Strom f\u00fcr ca. 570 Haushalte."}, {"id": 319, "lat": 48.049942, "lon": 15.591227, "name": "Eschenau", "turbines": 2, "mw_per_turbine": 0.5, "total_mw": 1.0, "year": 2000, "info": "Type: Enercon, E40/5.40 - Nabenh\u00f6he: 65, Rotordurchmesser: 40.3", "households": "Dieser Windpark liefert Strom f\u00fcr ca. 570 Haushalte."}, {"id": 308, "lat": 48.343261, "lon": 16.479784, "name": "Gerasdorf-Seyring II", "turbines": 1, "mw_per_turbine": 0.66, "total_mw": 0.66, "year": 2000, "info": "Type: Vestas, V47/660 - Nabenh\u00f6he: 65, Rotordurchmesser: 47", "households": "Dieser Windpark liefert Strom f\u00fcr ca. 376 Haushalte."}, {"id": 311, "lat": 48.3423, "lon": 16.485757, "name": "Gerasdorf-Seyring III", "turbines": 1, "mw_per_turbine": 0.75, "total_mw": 0.75, "year": 2000, "info": "Type: NEG Micon, NM48/750  - Nabenh\u00f6he: 50, Rotordurchmesser: 48.2", "households": "Dieser Windpark liefert Strom f\u00fcr ca. 428 Haushalte."}, {"id": 309, "lat": 48.33873, "lon": 16.445942, "name": "Hagenbrunn II", "turbines": 2, "mw_per_turbine": 0.66, "total_mw": 1.32, "year": 2000, "info": "Type: Vestas, V47/660 - Nabenh\u00f6he: 65, Rotordurchmesser: 47", "households": "Dieser Windpark liefert Strom f\u00fcr ca. 752 Haushalte."}, {"id": 309, "lat": 48.340734, "lon": 16.44743, "name": "Hagenbrunn II", "turbines": 2, "mw_per_turbine": 0.66, "total_mw": 1.32, "year": 2000, "info": "Type: Vestas, V47/660 - Nabenh\u00f6he: 65, Rotordurchmesser: 47", "households": "Dieser Windpark liefert Strom f\u00fcr ca. 752 Haushalte."}, {"id": 320, "lat": 48.342459, "lon": 16.448944, "name": "Hagenbrunn III", "turbines": 1, "mw_per_turbine": 0.66, "total_mw": 0.66, "year": 2000, "info": "Type: Vestas, V47/660 - Nabenh\u00f6he: 64.8, Rotordurchmesser: 47", "households": "Dieser Windpark liefert Strom f\u00fcr ca. 376 Haushalte."}, {"id": 316, "lat": 48.169544, "lon": 15.464329, "name": "Haindorf", "turbines": 2, "mw_per_turbine": 1.8, "total_mw": 3.6, "year": 2000, "info": "Type: Enercon, E66/18.70 - Nabenh\u00f6he: 65, Rotordurchmesser: 70.4", "households": "Dieser Windpark liefert Strom f\u00fcr ca. 2052 Haushalte."}, {"id": 316, "lat": 48.171287, "lon": 15.462982, "name": "Haindorf", "turbines": 2, "mw_per_turbine": 1.8, "total_mw": 3.6, "year": 2000, "info": "Type: Enercon, E66/18.70 - Nabenh\u00f6he: 65, Rotordurchmesser: 70.4", "households": "Dieser Windpark liefert Strom f\u00fcr ca. 2052 Haushalte."}, {"id": 525, "lat": 48.279076, "lon": 16.609659, "name": "Markgrafneusiedl I", "turbines": 1, "mw_per_turbine": 0.75, "total_mw": 0.75, "year": 2000, "info": "Type: NEG Micon, NM48/750 - Nabenh\u00f6he: 135, Rotordurchmesser: 48.2", "households": "Dieser Windpark liefert Strom f\u00fcr ca. 428 Haushalte."}, {"id": 307, "lat": 48.398997, "lon": 16.714801, "name": "Matzen", "turbines": 1, "mw_per_turbine": 0.75, "total_mw": 0.75, "year": 2000, "info": "Type: NEG Micon, NM48/750  - Nabenh\u00f6he: 65, Rotordurchmesser: 48.2", "households": "Dieser Windpark liefert Strom f\u00fcr ca. 428 Haushalte."}, {"id": 310, "lat": 48.236151, "lon": 15.725516, "name": "Pottenbrunn II", "turbines": 2, "mw_per_turbine": 0.6, "total_mw": 1.2, "year": 2000, "info": "Type: Enercon, E40/6.44 - Nabenh\u00f6he: 65, Rotordurchmesser: 44", "households": "Dieser Windpark liefert Strom f\u00fcr ca. 684 Haushalte."}, {"id": 310, "lat": 48.23611, "lon": 15.727994, "name": "Pottenbrunn II", "turbines": 2, "mw_per_turbine": 0.6, "total_mw": 1.2, "year": 2000, "info": "Type: Enercon, E40/6.44 - Nabenh\u00f6he: 65, Rotordurchmesser: 44", "households": "Dieser Windpark liefert Strom f\u00fcr ca. 684 Haushalte."}, {"id": 317, "lat": 48.39956, "lon": 16.18926, "name": "Stockerau", "turbines": 4, "mw_per_turbine": 0.6, "total_mw": 2.4, "year": 2000, "info": "Type: Enercon, E40/6.44 - Nabenh\u00f6he: 70, Rotordurchmesser: 43.7", "households": "Dieser Windpark liefert Strom f\u00fcr ca. 1368 Haushalte."}, {"id": 317, "lat": 48.40208, "lon": 16.1921, "name": "Stockerau", "turbines": 4, "mw_per_turbine": 0.6, "total_mw": 2.4, "year": 2000, "info": "Type: Enercon, E40/6.44 - Nabenh\u00f6he: 70, Rotordurchmesser: 43.7", "households": "Dieser Windpark liefert Strom f\u00fcr ca. 1368 Haushalte."}, {"id": 317, "lat": 48.39749, "lon": 16.18884, "name": "Stockerau", "turbines": 4, "mw_per_turbine": 0.6, "total_mw": 2.4, "year": 2000, "info": "Type: Enercon, E40/6.44 - Nabenh\u00f6he: 70, Rotordurchmesser: 43.7", "households": "Dieser Windpark liefert Strom f\u00fcr ca. 1368 Haushalte."}, {"id": 317, "lat": 48.39924, "lon": 16.19243, "name": "Stockerau", "turbines": 4, "mw_per_turbine": 0.6, "total_mw": 2.4, "year": 2000, "info": "Type: Enercon, E40/6.44 - Nabenh\u00f6he: 70, Rotordurchmesser: 43.7", "households": "Dieser Windpark liefert Strom f\u00fcr ca. 1368 Haushalte."}, {"id": 326, "lat": 47.52393, "lon": 14.94917, "name": "Pr\u00e4bichl", "turbines": 1, "mw_per_turbine": 0.6, "total_mw": 0.6, "year": 2001, "info": "Type: Enercon, E40/6.44 - Nabenh\u00f6he: 50, Rotordurchmesser: 43.7", "households": "Dieser Windpark liefert Strom f\u00fcr ca. 342 Haushalte."}, {"id": 325, "lat": 48.512804, "lon": 16.602996, "name": "Schrick I-III", "turbines": 3, "mw_per_turbine": 0.6, "total_mw": 1.7999999999999998, "year": 2001, "info": "Type: Enercon, E40/6.44 - Nabenh\u00f6he: 65, Rotordurchmesser: 43.7", "households": "Dieser Windpark liefert Strom f\u00fcr ca. 1026 Haushalte."}, {"id": 325, "lat": 48.510679, "lon": 16.601, "name": "Schrick I-III", "turbines": 3, "mw_per_turbine": 0.6, "total_mw": 1.7999999999999998, "year": 2001, "info": "Type: Enercon, E40/6.44 - Nabenh\u00f6he: 65, Rotordurchmesser: 43.7", "households": "Dieser Windpark liefert Strom f\u00fcr ca. 1026 Haushalte."}, {"id": 325, "lat": 48.513378, "lon": 16.595446, "name": "Schrick I-III", "turbines": 3, "mw_per_turbine": 0.6, "total_mw": 1.7999999999999998, "year": 2001, "info": "Type: Enercon, E40/6.44 - Nabenh\u00f6he: 65, Rotordurchmesser: 43.7", "households": "Dieser Windpark liefert Strom f\u00fcr ca. 1026 Haushalte."}, {"id": 327, "lat": 48.322278, "lon": 13.668043, "name": "Steindlberg", "turbines": 2, "mw_per_turbine": 0.66, "total_mw": 1.32, "year": 2001, "info": "Type: Vestas, V47/660 - Nabenh\u00f6he: 65, Rotordurchmesser: 47", "households": "Dieser Windpark liefert Strom f\u00fcr ca. 752 Haushalte."}, {"id": 327, "lat": 48.329437, "lon": 13.661656, "name": "Steindlberg", "turbines": 2, "mw_per_turbine": 0.66, "total_mw": 1.32, "year": 2001, "info": "Type: Vestas, V47/660 - Nabenh\u00f6he: 65, Rotordurchmesser: 47", "households": "Dieser Windpark liefert Strom f\u00fcr ca. 752 Haushalte."}, {"id": 322, "lat": 48.374452, "lon": 16.503953, "name": "Wolkersdorf II", "turbines": 1, "mw_per_turbine": 0.6, "total_mw": 0.6, "year": 2001, "info": "Type: Enercon, E40/6.44 - Nabenh\u00f6he: 70, Rotordurchmesser: 43.7", "households": "Dieser Windpark liefert Strom f\u00fcr ca. 342 Haushalte."}, {"id": 323, "lat": 47.967255, "lon": 16.992567, "name": "Zurndorf IV", "turbines": 1, "mw_per_turbine": 1.5, "total_mw": 1.5, "year": 2001, "info": "Type: Windtec, WT1566 - Nabenh\u00f6he: 65, Rotordurchmesser: 66", "households": "Dieser Windpark liefert Strom f\u00fcr ca. 855 Haushalte."}, {"id": 333, "lat": 48.260612, "lon": 16.519849, "name": "Breitenlee", "turbines": 3, "mw_per_turbine": 0.85, "total_mw": 2.55, "year": 2002, "info": "Type: Vestas, V52/850 - Nabenh\u00f6he: 70, Rotordurchmesser: 52", "households": "Dieser Windpark liefert Strom f\u00fcr ca. 1454 Haushalte."}, {"id": 333, "lat": 48.262409, "lon": 16.520637, "name": "Breitenlee", "turbines": 3, "mw_per_turbine": 0.85, "total_mw": 2.55, "year": 2002, "info": "Type: Vestas, V52/850 - Nabenh\u00f6he: 70, Rotordurchmesser: 52", "households": "Dieser Windpark liefert Strom f\u00fcr ca. 1454 Haushalte."}, {"id": 333, "lat": 48.264252, "lon": 16.52129, "name": "Breitenlee", "turbines": 3, "mw_per_turbine": 0.85, "total_mw": 2.55, "year": 2002, "info": "Type: Vestas, V52/850 - Nabenh\u00f6he: 70, Rotordurchmesser: 52", "households": "Dieser Windpark liefert Strom f\u00fcr ca. 1454 Haushalte."}, {"id": 330, "lat": 48.056628, "lon": 16.767634, "name": "H\u00f6flein I-II", "turbines": 2, "mw_per_turbine": 0.6, "total_mw": 1.2, "year": 2002, "info": "Type: Enercon, E40/6.44 - Nabenh\u00f6he: 65, Rotordurchmesser: 43.7", "households": "Dieser Windpark liefert Strom f\u00fcr ca. 684 Haushalte."}, {"id": 330, "lat": 48.059831, "lon": 16.769485, "name": "H\u00f6flein I-II", "turbines": 2, "mw_per_turbine": 0.6, "total_mw": 1.2, "year": 2002, "info": "Type: Enercon, E40/6.44 - Nabenh\u00f6he: 65, Rotordurchmesser: 43.7", "households": "Dieser Windpark liefert Strom f\u00fcr ca. 684 Haushalte."}, {"id": 334, "lat": 48.599253, "lon": 16.762339, "name": "Neusiedl/Zaya", "turbines": 5, "mw_per_turbine": 1.8, "total_mw": 9.0, "year": 2002, "info": "Type: Enercon, E66/1.800 - Nabenh\u00f6he: 65, Rotordurchmesser: 66", "households": "Dieser Windpark liefert Strom f\u00fcr ca. 5130 Haushalte."}, {"id": 334, "lat": 48.596532, "lon": 16.761231, "name": "Neusiedl/Zaya", "turbines": 5, "mw_per_turbine": 1.8, "total_mw": 9.0, "year": 2002, "info": "Type: Enercon, E66/1.800 - Nabenh\u00f6he: 65, Rotordurchmesser: 66", "households": "Dieser Windpark liefert Strom f\u00fcr ca. 5130 Haushalte."}, {"id": 334, "lat": 48.593549, "lon": 16.755729, "name": "Neusiedl/Zaya", "turbines": 5, "mw_per_turbine": 1.8, "total_mw": 9.0, "year": 2002, "info": "Type: Enercon, E66/1.800 - Nabenh\u00f6he: 65, Rotordurchmesser: 66", "households": "Dieser Windpark liefert Strom f\u00fcr ca. 5130 Haushalte."}, {"id": 334, "lat": 48.59267, "lon": 16.752536, "name": "Neusiedl/Zaya", "turbines": 5, "mw_per_turbine": 1.8, "total_mw": 9.0, "year": 2002, "info": "Type: Enercon, E66/1.800 - Nabenh\u00f6he: 65, Rotordurchmesser: 66", "households": "Dieser Windpark liefert Strom f\u00fcr ca. 5130 Haushalte."}, {"id": 334, "lat": 48.594995, "lon": 16.758507, "name": "Neusiedl/Zaya", "turbines": 5, "mw_per_turbine": 1.8, "total_mw": 9.0, "year": 2002, "info": "Type: Enercon, E66/1.800 - Nabenh\u00f6he: 65, Rotordurchmesser: 66", "households": "Dieser Windpark liefert Strom f\u00fcr ca. 5130 Haushalte."}, {"id": 331, "lat": 48.057307, "lon": 16.922812, "name": "Prellenkirchen II", "turbines": 5, "mw_per_turbine": 1.8, "total_mw": 9.0, "year": 2002, "info": "Type: Enercon, E66/18.70 - Nabenh\u00f6he: 65, Rotordurchmesser: 70.4", "households": "Dieser Windpark liefert Strom f\u00fcr ca. 5130 Haushalte."}, {"id": 331, "lat": 48.059239, "lon": 16.924914, "name": "Prellenkirchen II", "turbines": 5, "mw_per_turbine": 1.8, "total_mw": 9.0, "year": 2002, "info": "Type: Enercon, E66/18.70 - Nabenh\u00f6he: 65, Rotordurchmesser: 70.4", "households": "Dieser Windpark liefert Strom f\u00fcr ca. 5130 Haushalte."}, {"id": 331, "lat": 48.060338, "lon": 16.927985, "name": "Prellenkirchen II", "turbines": 5, "mw_per_turbine": 1.8, "total_mw": 9.0, "year": 2002, "info": "Type: Enercon, E66/18.70 - Nabenh\u00f6he: 65, Rotordurchmesser: 70.4", "households": "Dieser Windpark liefert Strom f\u00fcr ca. 5130 Haushalte."}, {"id": 331, "lat": 48.061462, "lon": 16.933364, "name": "Prellenkirchen II", "turbines": 5, "mw_per_turbine": 1.8, "total_mw": 9.0, "year": 2002, "info": "Type: Enercon, E66/18.70 - Nabenh\u00f6he: 65, Rotordurchmesser: 70.4", "households": "Dieser Windpark liefert Strom f\u00fcr ca. 5130 Haushalte."}, {"id": 331, "lat": 48.063767, "lon": 16.927689, "name": "Prellenkirchen II", "turbines": 5, "mw_per_turbine": 1.8, "total_mw": 9.0, "year": 2002, "info": "Type: Enercon, E66/18.70 - Nabenh\u00f6he: 65, Rotordurchmesser: 70.4", "households": "Dieser Windpark liefert Strom f\u00fcr ca. 5130 Haushalte."}, {"id": 335, "lat": 48.066979, "lon": 16.929161, "name": "Prellenkirchen III", "turbines": 1, "mw_per_turbine": 1.8, "total_mw": 1.8, "year": 2002, "info": "Type: Enercon, E66/18.70 - Nabenh\u00f6he: 86, Rotordurchmesser: 70.4", "households": "Dieser Windpark liefert Strom f\u00fcr ca. 1026 Haushalte."}, {"id": 332, "lat": 48.0958, "lon": 13.356117, "name": "Steiglberg", "turbines": 1, "mw_per_turbine": 2, "total_mw": 2, "year": 2002, "info": "Type: Vestas, V80/2000 - Nabenh\u00f6he: 65, Rotordurchmesser: 80", "households": "Dieser Windpark liefert Strom f\u00fcr ca. 1140 Haushalte."}, {"id": 346, "lat": 48.237561, "lon": 16.895751, "name": "Breitensee I", "turbines": 1, "mw_per_turbine": 0.6, "total_mw": 0.6, "year": 2003, "info": "Type: Enercon, E40/6.44 - Nabenh\u00f6he: 86, Rotordurchmesser: 43.7", "households": "Dieser Windpark liefert Strom f\u00fcr ca. 342 Haushalte."}, {"id": 354, "lat": 48.235182, "lon": 16.893181, "name": "Breitensee II", "turbines": 1, "mw_per_turbine": 0.6, "total_mw": 0.6, "year": 2003, "info": "Type: Enercon, E40/6.44 - Nabenh\u00f6he: 86, Rotordurchmesser: 43.7", "households": "Dieser Windpark liefert Strom f\u00fcr ca. 342 Haushalte."}, {"id": 351, "lat": 47.895836, "lon": 16.369429, "name": "Ebenfurth", "turbines": 3, "mw_per_turbine": 1.3, "total_mw": 3.9000000000000004, "year": 2003, "info": "Type: Nordex, N62/1300 - Nabenh\u00f6he: 98, Rotordurchmesser: 62", "households": "Dieser Windpark liefert Strom f\u00fcr ca. 2223 Haushalte."}, {"id": 351, "lat": 47.892195, "lon": 16.365068, "name": "Ebenfurth", "turbines": 3, "mw_per_turbine": 1.3, "total_mw": 3.9000000000000004, "year": 2003, "info": "Type: Nordex, N62/1300 - Nabenh\u00f6he: 98, Rotordurchmesser: 62", "households": "Dieser Windpark liefert Strom f\u00fcr ca. 2223 Haushalte."}, {"id": 351, "lat": 47.8975, "lon": 16.371824, "name": "Ebenfurth", "turbines": 3, "mw_per_turbine": 1.3, "total_mw": 3.9000000000000004, "year": 2003, "info": "Type: Nordex, N62/1300 - Nabenh\u00f6he: 98, Rotordurchmesser: 62", "households": "Dieser Windpark liefert Strom f\u00fcr ca. 2223 Haushalte."}, {"id": 358, "lat": 48.06173, "lon": 16.7664, "name": "H\u00f6flein III", "turbines": 1, "mw_per_turbine": 1.8, "total_mw": 1.8, "year": 2003, "info": "Type: Enercon, E66/18.70 - Nabenh\u00f6he: 86, Rotordurchmesser: 70.4", "households": "Dieser Windpark liefert Strom f\u00fcr ca. 1026 Haushalte."}, {"id": 336, "lat": 48.529208, "lon": 16.07952, "name": "Hollabrunn", "turbines": 1, "mw_per_turbine": 1.8, "total_mw": 1.8, "year": 2003, "info": "Type: Enercon, E66/18.70 - Nabenh\u00f6he: 65, Rotordurchmesser: 70.4", "households": "Dieser Windpark liefert Strom f\u00fcr ca. 1026 Haushalte."}, {"id": 338, "lat": 47.60865, "lon": 16.20358, "name": "Lichtenegg", "turbines": 1, "mw_per_turbine": 1.8, "total_mw": 1.8, "year": 2003, "info": "Type: Enercon, E66/18.70 - Nabenh\u00f6he: 100, Rotordurchmesser: 70.4", "households": "Dieser Windpark liefert Strom f\u00fcr ca. 1026 Haushalte."}, {"id": 341, "lat": 48.040998, "lon": 16.896637, "name": "Neuhof I", "turbines": 9, "mw_per_turbine": 2, "total_mw": 18, "year": 2003, "info": "Type: Vestas, V80/2000 - Nabenh\u00f6he: 78, Rotordurchmesser: 80", "households": "Dieser Windpark liefert Strom f\u00fcr ca. 10260 Haushalte."}, {"id": 341, "lat": 48.035348, "lon": 16.885888, "name": "Neuhof I", "turbines": 9, "mw_per_turbine": 2, "total_mw": 18, "year": 2003, "info": "Type: Vestas, V80/2000 - Nabenh\u00f6he: 78, Rotordurchmesser: 80", "households": "Dieser Windpark liefert Strom f\u00fcr ca. 10260 Haushalte."}, {"id": 341, "lat": 48.039495, "lon": 16.89308, "name": "Neuhof I", "turbines": 9, "mw_per_turbine": 2, "total_mw": 18, "year": 2003, "info": "Type: Vestas, V80/2000 - Nabenh\u00f6he: 78, Rotordurchmesser: 80", "households": "Dieser Windpark liefert Strom f\u00fcr ca. 10260 Haushalte."}, {"id": 341, "lat": 48.059949, "lon": 16.903631, "name": "Neuhof I", "turbines": 9, "mw_per_turbine": 2, "total_mw": 18, "year": 2003, "info": "Type: Vestas, V80/2000 - Nabenh\u00f6he: 78, Rotordurchmesser: 80", "households": "Dieser Windpark liefert Strom f\u00fcr ca. 10260 Haushalte."}, {"id": 341, "lat": 48.051314, "lon": 16.896601, "name": "Neuhof I", "turbines": 9, "mw_per_turbine": 2, "total_mw": 18, "year": 2003, "info": "Type: Vestas, V80/2000 - Nabenh\u00f6he: 78, Rotordurchmesser: 80", "households": "Dieser Windpark liefert Strom f\u00fcr ca. 10260 Haushalte."}, {"id": 341, "lat": 48.044151, "lon": 16.908272, "name": "Neuhof I", "turbines": 9, "mw_per_turbine": 2, "total_mw": 18, "year": 2003, "info": "Type: Vestas, V80/2000 - Nabenh\u00f6he: 78, Rotordurchmesser: 80", "households": "Dieser Windpark liefert Strom f\u00fcr ca. 10260 Haushalte."}, {"id": 341, "lat": 48.043236, "lon": 16.904279, "name": "Neuhof I", "turbines": 9, "mw_per_turbine": 2, "total_mw": 18, "year": 2003, "info": "Type: Vestas, V80/2000 - Nabenh\u00f6he: 78, Rotordurchmesser: 80", "households": "Dieser Windpark liefert Strom f\u00fcr ca. 10260 Haushalte."}, {"id": 341, "lat": 48.042356, "lon": 16.900246, "name": "Neuhof I", "turbines": 9, "mw_per_turbine": 2, "total_mw": 18, "year": 2003, "info": "Type: Vestas, V80/2000 - Nabenh\u00f6he: 78, Rotordurchmesser: 80", "households": "Dieser Windpark liefert Strom f\u00fcr ca. 10260 Haushalte."}, {"id": 341, "lat": 48.037317, "lon": 16.889744, "name": "Neuhof I", "turbines": 9, "mw_per_turbine": 2, "total_mw": 18, "year": 2003, "info": "Type: Vestas, V80/2000 - Nabenh\u00f6he: 78, Rotordurchmesser: 80", "households": "Dieser Windpark liefert Strom f\u00fcr ca. 10260 Haushalte."}, {"id": 337, "lat": 47.956659, "lon": 16.896288, "name": "Neusiedl", "turbines": 18, "mw_per_turbine": 1.8, "total_mw": 32.4, "year": 2003, "info": "Type: Enercon, E66/1.800 - Nabenh\u00f6he: 65, Rotordurchmesser: 70", "households": "Dieser Windpark liefert Strom f\u00fcr ca. 18468 Haushalte."}, {"id": 337, "lat": 47.96307, "lon": 16.890825, "name": "Neusiedl", "turbines": 18, "mw_per_turbine": 1.8, "total_mw": 32.4, "year": 2003, "info": "Type: Enercon, E66/1.800 - Nabenh\u00f6he: 65, Rotordurchmesser: 70", "households": "Dieser Windpark liefert Strom f\u00fcr ca. 18468 Haushalte."}, {"id": 337, "lat": 47.9527, "lon": 16.909136, "name": "Neusiedl", "turbines": 18, "mw_per_turbine": 1.8, "total_mw": 32.4, "year": 2003, "info": "Type: Enercon, E66/1.800 - Nabenh\u00f6he: 65, Rotordurchmesser: 70", "households": "Dieser Windpark liefert Strom f\u00fcr ca. 18468 Haushalte."}, {"id": 337, "lat": 47.956774, "lon": 16.903812, "name": "Neusiedl", "turbines": 18, "mw_per_turbine": 1.8, "total_mw": 32.4, "year": 2003, "info": "Type: Enercon, E66/1.800 - Nabenh\u00f6he: 65, Rotordurchmesser: 70", "households": "Dieser Windpark liefert Strom f\u00fcr ca. 18468 Haushalte."}, {"id": 337, "lat": 47.957868, "lon": 16.909858, "name": "Neusiedl", "turbines": 18, "mw_per_turbine": 1.8, "total_mw": 32.4, "year": 2003, "info": "Type: Enercon, E66/1.800 - Nabenh\u00f6he: 65, Rotordurchmesser: 70", "households": "Dieser Windpark liefert Strom f\u00fcr ca. 18468 Haushalte."}, {"id": 337, "lat": 47.953002, "lon": 16.890762, "name": "Neusiedl", "turbines": 18, "mw_per_turbine": 1.8, "total_mw": 32.4, "year": 2003, "info": "Type: Enercon, E66/1.800 - Nabenh\u00f6he: 65, Rotordurchmesser: 70", "households": "Dieser Windpark liefert Strom f\u00fcr ca. 18468 Haushalte."}, {"id": 337, "lat": 47.960239, "lon": 16.900169, "name": "Neusiedl", "turbines": 18, "mw_per_turbine": 1.8, "total_mw": 32.4, "year": 2003, "info": "Type: Enercon, E66/1.800 - Nabenh\u00f6he: 65, Rotordurchmesser: 70", "households": "Dieser Windpark liefert Strom f\u00fcr ca. 18468 Haushalte."}, {"id": 337, "lat": 47.960049, "lon": 16.894206, "name": "Neusiedl", "turbines": 18, "mw_per_turbine": 1.8, "total_mw": 32.4, "year": 2003, "info": "Type: Enercon, E66/1.800 - Nabenh\u00f6he: 65, Rotordurchmesser: 70", "households": "Dieser Windpark liefert Strom f\u00fcr ca. 18468 Haushalte."}, {"id": 337, "lat": 47.958706, "lon": 16.890793, "name": "Neusiedl", "turbines": 18, "mw_per_turbine": 1.8, "total_mw": 32.4, "year": 2003, "info": "Type: Enercon, E66/1.800 - Nabenh\u00f6he: 65, Rotordurchmesser: 70", "households": "Dieser Windpark liefert Strom f\u00fcr ca. 18468 Haushalte."}, {"id": 337, "lat": 47.962986, "lon": 16.896113, "name": "Neusiedl", "turbines": 18, "mw_per_turbine": 1.8, "total_mw": 32.4, "year": 2003, "info": "Type: Enercon, E66/1.800 - Nabenh\u00f6he: 65, Rotordurchmesser: 70", "households": "Dieser Windpark liefert Strom f\u00fcr ca. 18468 Haushalte."}, {"id": 337, "lat": 47.963821, "lon": 16.879502, "name": "Neusiedl", "turbines": 18, "mw_per_turbine": 1.8, "total_mw": 32.4, "year": 2003, "info": "Type: Enercon, E66/1.800 - Nabenh\u00f6he: 65, Rotordurchmesser: 70", "households": "Dieser Windpark liefert Strom f\u00fcr ca. 18468 Haushalte."}, {"id": 337, "lat": 47.950577, "lon": 16.885912, "name": "Neusiedl", "turbines": 18, "mw_per_turbine": 1.8, "total_mw": 32.4, "year": 2003, "info": "Type: Enercon, E66/1.800 - Nabenh\u00f6he: 65, Rotordurchmesser: 70", "households": "Dieser Windpark liefert Strom f\u00fcr ca. 18468 Haushalte."}, {"id": 337, "lat": 47.961487, "lon": 16.903751, "name": "Neusiedl", "turbines": 18, "mw_per_turbine": 1.8, "total_mw": 32.4, "year": 2003, "info": "Type: Enercon, E66/1.800 - Nabenh\u00f6he: 65, Rotordurchmesser: 70", "households": "Dieser Windpark liefert Strom f\u00fcr ca. 18468 Haushalte."}, {"id": 337, "lat": 47.966256, "lon": 16.874085, "name": "Neusiedl", "turbines": 18, "mw_per_turbine": 1.8, "total_mw": 32.4, "year": 2003, "info": "Type: Enercon, E66/1.800 - Nabenh\u00f6he: 65, Rotordurchmesser: 70", "households": "Dieser Windpark liefert Strom f\u00fcr ca. 18468 Haushalte."}, {"id": 337, "lat": 47.963073, "lon": 16.875549, "name": "Neusiedl", "turbines": 18, "mw_per_turbine": 1.8, "total_mw": 32.4, "year": 2003, "info": "Type: Enercon, E66/1.800 - Nabenh\u00f6he: 65, Rotordurchmesser: 70", "households": "Dieser Windpark liefert Strom f\u00fcr ca. 18468 Haushalte."}, {"id": 337, "lat": 47.965383, "lon": 16.883785, "name": "Neusiedl", "turbines": 18, "mw_per_turbine": 1.8, "total_mw": 32.4, "year": 2003, "info": "Type: Enercon, E66/1.800 - Nabenh\u00f6he: 65, Rotordurchmesser: 70", "households": "Dieser Windpark liefert Strom f\u00fcr ca. 18468 Haushalte."}, {"id": 337, "lat": 47.9563, "lon": 16.879565, "name": "Neusiedl", "turbines": 18, "mw_per_turbine": 1.8, "total_mw": 32.4, "year": 2003, "info": "Type: Enercon, E66/1.800 - Nabenh\u00f6he: 65, Rotordurchmesser: 70", "households": "Dieser Windpark liefert Strom f\u00fcr ca. 18468 Haushalte."}, {"id": 337, "lat": 47.959017, "lon": 16.883703, "name": "Neusiedl", "turbines": 18, "mw_per_turbine": 1.8, "total_mw": 32.4, "year": 2003, "info": "Type: Enercon, E66/1.800 - Nabenh\u00f6he: 65, Rotordurchmesser: 70", "households": "Dieser Windpark liefert Strom f\u00fcr ca. 18468 Haushalte."}, {"id": 350, "lat": 48.34649, "lon": 16.50783, "name": "Obersdorf I-III", "turbines": 3, "mw_per_turbine": 1.8, "total_mw": 5.4, "year": 2003, "info": "Type: Enercon, E66/18.70 - Nabenh\u00f6he: 86, Rotordurchmesser: 70.4", "households": "Dieser Windpark liefert Strom f\u00fcr ca. 3078 Haushalte."}, {"id": 350, "lat": 48.35285, "lon": 16.5107, "name": "Obersdorf I-III", "turbines": 3, "mw_per_turbine": 1.8, "total_mw": 5.4, "year": 2003, "info": "Type: Enercon, E66/18.70 - Nabenh\u00f6he: 86, Rotordurchmesser: 70.4", "households": "Dieser Windpark liefert Strom f\u00fcr ca. 3078 Haushalte."}, {"id": 350, "lat": 48.35923, "lon": 16.5129, "name": "Obersdorf I-III", "turbines": 3, "mw_per_turbine": 1.8, "total_mw": 5.4, "year": 2003, "info": "Type: Enercon, E66/18.70 - Nabenh\u00f6he: 86, Rotordurchmesser: 70.4", "households": "Dieser Windpark liefert Strom f\u00fcr ca. 3078 Haushalte."}, {"id": 349, "lat": 48.055378, "lon": 17.007517, "name": "Pama", "turbines": 8, "mw_per_turbine": 1.25, "total_mw": 10.0, "year": 2003, "info": "Type: DeWind, D6 - Nabenh\u00f6he: 100, Rotordurchmesser: 64", "households": "Dieser Windpark liefert Strom f\u00fcr ca. 5700 Haushalte."}, {"id": 349, "lat": 48.059383, "lon": 17.011581, "name": "Pama", "turbines": 8, "mw_per_turbine": 1.25, "total_mw": 10.0, "year": 2003, "info": "Type: DeWind, D6 - Nabenh\u00f6he: 100, Rotordurchmesser: 64", "households": "Dieser Windpark liefert Strom f\u00fcr ca. 5700 Haushalte."}, {"id": 349, "lat": 48.056701, "lon": 17.008889, "name": "Pama", "turbines": 8, "mw_per_turbine": 1.25, "total_mw": 10.0, "year": 2003, "info": "Type: DeWind, D6 - Nabenh\u00f6he: 100, Rotordurchmesser: 64", "households": "Dieser Windpark liefert Strom f\u00fcr ca. 5700 Haushalte."}, {"id": 349, "lat": 48.054001, "lon": 17.005997, "name": "Pama", "turbines": 8, "mw_per_turbine": 1.25, "total_mw": 10.0, "year": 2003, "info": "Type: DeWind, D6 - Nabenh\u00f6he: 100, Rotordurchmesser: 64", "households": "Dieser Windpark liefert Strom f\u00fcr ca. 5700 Haushalte."}, {"id": 349, "lat": 48.052767, "lon": 17.004841, "name": "Pama", "turbines": 8, "mw_per_turbine": 1.25, "total_mw": 10.0, "year": 2003, "info": "Type: DeWind, D6 - Nabenh\u00f6he: 100, Rotordurchmesser: 64", "households": "Dieser Windpark liefert Strom f\u00fcr ca. 5700 Haushalte."}, {"id": 349, "lat": 48.051426, "lon": 17.003495, "name": "Pama", "turbines": 8, "mw_per_turbine": 1.25, "total_mw": 10.0, "year": 2003, "info": "Type: DeWind, D6 - Nabenh\u00f6he: 100, Rotordurchmesser: 64", "households": "Dieser Windpark liefert Strom f\u00fcr ca. 5700 Haushalte."}, {"id": 349, "lat": 48.050121, "lon": 17.002097, "name": "Pama", "turbines": 8, "mw_per_turbine": 1.25, "total_mw": 10.0, "year": 2003, "info": "Type: DeWind, D6 - Nabenh\u00f6he: 100, Rotordurchmesser: 64", "households": "Dieser Windpark liefert Strom f\u00fcr ca. 5700 Haushalte."}, {"id": 349, "lat": 48.058051, "lon": 17.010235, "name": "Pama", "turbines": 8, "mw_per_turbine": 1.25, "total_mw": 10.0, "year": 2003, "info": "Type: DeWind, D6 - Nabenh\u00f6he: 100, Rotordurchmesser: 64", "households": "Dieser Windpark liefert Strom f\u00fcr ca. 5700 Haushalte."}, {"id": 343, "lat": 48.076995, "lon": 16.981347, "name": "Prellenkirchen III", "turbines": 8, "mw_per_turbine": 1.8, "total_mw": 14.4, "year": 2003, "info": "Type: Enercon, E66/1.800 - Nabenh\u00f6he: 86, Rotordurchmesser: 66", "households": "Dieser Windpark liefert Strom f\u00fcr ca. 8208 Haushalte."}, {"id": 343, "lat": 48.063349, "lon": 16.985121, "name": "Prellenkirchen III", "turbines": 8, "mw_per_turbine": 1.8, "total_mw": 14.4, "year": 2003, "info": "Type: Enercon, E66/1.800 - Nabenh\u00f6he: 86, Rotordurchmesser: 66", "households": "Dieser Windpark liefert Strom f\u00fcr ca. 8208 Haushalte."}, {"id": 343, "lat": 48.06614, "lon": 16.989208, "name": "Prellenkirchen III", "turbines": 8, "mw_per_turbine": 1.8, "total_mw": 14.4, "year": 2003, "info": "Type: Enercon, E66/1.800 - Nabenh\u00f6he: 86, Rotordurchmesser: 66", "households": "Dieser Windpark liefert Strom f\u00fcr ca. 8208 Haushalte."}, {"id": 343, "lat": 48.061778, "lon": 16.979775, "name": "Prellenkirchen III", "turbines": 8, "mw_per_turbine": 1.8, "total_mw": 14.4, "year": 2003, "info": "Type: Enercon, E66/1.800 - Nabenh\u00f6he: 86, Rotordurchmesser: 66", "households": "Dieser Windpark liefert Strom f\u00fcr ca. 8208 Haushalte."}, {"id": 343, "lat": 48.070825, "lon": 16.983055, "name": "Prellenkirchen III", "turbines": 8, "mw_per_turbine": 1.8, "total_mw": 14.4, "year": 2003, "info": "Type: Enercon, E66/1.800 - Nabenh\u00f6he: 86, Rotordurchmesser: 66", "households": "Dieser Windpark liefert Strom f\u00fcr ca. 8208 Haushalte."}, {"id": 343, "lat": 48.074804, "lon": 16.977495, "name": "Prellenkirchen III", "turbines": 8, "mw_per_turbine": 1.8, "total_mw": 14.4, "year": 2003, "info": "Type: Enercon, E66/1.800 - Nabenh\u00f6he: 86, Rotordurchmesser: 66", "households": "Dieser Windpark liefert Strom f\u00fcr ca. 8208 Haushalte."}, {"id": 343, "lat": 48.072669, "lon": 16.989371, "name": "Prellenkirchen III", "turbines": 8, "mw_per_turbine": 1.8, "total_mw": 14.4, "year": 2003, "info": "Type: Enercon, E66/1.800 - Nabenh\u00f6he: 86, Rotordurchmesser: 66", "households": "Dieser Windpark liefert Strom f\u00fcr ca. 8208 Haushalte."}, {"id": 343, "lat": 48.06935, "lon": 16.978138, "name": "Prellenkirchen III", "turbines": 8, "mw_per_turbine": 1.8, "total_mw": 14.4, "year": 2003, "info": "Type: Enercon, E66/1.800 - Nabenh\u00f6he: 86, Rotordurchmesser: 66", "households": "Dieser Windpark liefert Strom f\u00fcr ca. 8208 Haushalte."}, {"id": 356, "lat": 48.10205, "lon": 16.75475, "name": "Scharndorf", "turbines": 11, "mw_per_turbine": 2, "total_mw": 22, "year": 2003, "info": "Type: Vestas, V80/2000 - Nabenh\u00f6he: 86, Rotordurchmesser: 80", "households": "Dieser Windpark liefert Strom f\u00fcr ca. 12540 Haushalte."}, {"id": 356, "lat": 48.099333, "lon": 16.763933, "name": "Scharndorf", "turbines": 11, "mw_per_turbine": 2, "total_mw": 22, "year": 2003, "info": "Type: Vestas, V80/2000 - Nabenh\u00f6he: 86, Rotordurchmesser: 80", "households": "Dieser Windpark liefert Strom f\u00fcr ca. 12540 Haushalte."}, {"id": 356, "lat": 48.086333, "lon": 16.774467, "name": "Scharndorf", "turbines": 11, "mw_per_turbine": 2, "total_mw": 22, "year": 2003, "info": "Type: Vestas, V80/2000 - Nabenh\u00f6he: 86, Rotordurchmesser: 80", "households": "Dieser Windpark liefert Strom f\u00fcr ca. 12540 Haushalte."}, {"id": 356, "lat": 48.0879, "lon": 16.781967, "name": "Scharndorf", "turbines": 11, "mw_per_turbine": 2, "total_mw": 22, "year": 2003, "info": "Type: Vestas, V80/2000 - Nabenh\u00f6he: 86, Rotordurchmesser: 80", "households": "Dieser Windpark liefert Strom f\u00fcr ca. 12540 Haushalte."}, {"id": 356, "lat": 48.083739, "lon": 16.789644, "name": "Scharndorf", "turbines": 11, "mw_per_turbine": 2, "total_mw": 22, "year": 2003, "info": "Type: Vestas, V80/2000 - Nabenh\u00f6he: 86, Rotordurchmesser: 80", "households": "Dieser Windpark liefert Strom f\u00fcr ca. 12540 Haushalte."}, {"id": 347, "lat": 48.17909, "lon": 13.6086, "name": "Schernham", "turbines": 1, "mw_per_turbine": 1.8, "total_mw": 1.8, "year": 2003, "info": "Type: Enercon, E66/18.70 - Nabenh\u00f6he: 68, Rotordurchmesser: 70", "households": "Dieser Windpark liefert Strom f\u00fcr ca. 1026 Haushalte."}, {"id": 353, "lat": 48.514617, "lon": 16.599221, "name": "Schrick IV", "turbines": 1, "mw_per_turbine": 1.8, "total_mw": 1.8, "year": 2003, "info": "Type: Enercon, E66/18.70 - Nabenh\u00f6he: 91.5, Rotordurchmesser: 70.4", "households": "Dieser Windpark liefert Strom f\u00fcr ca. 1026 Haushalte."}, {"id": 339, "lat": 48.581615, "lon": 14.233706, "name": "Sternwald I", "turbines": 1, "mw_per_turbine": 2, "total_mw": 2, "year": 2003, "info": "Type: Vestas, V80/2000 - Nabenh\u00f6he: 86, Rotordurchmesser: 80", "households": "Dieser Windpark liefert Strom f\u00fcr ca. 1140 Haushalte."}, {"id": 355, "lat": "47,944234564189", "lon": "16,8967061451411", "name": "Weiden", "turbines": 26, "mw_per_turbine": 1.8, "total_mw": 46.800000000000004, "year": 2003, "info": "Type: Enercon, E66/1.800 - Nabenh\u00f6he: 100, Rotordurchmesser: 70", "households": "Dieser Windpark liefert Strom f\u00fcr ca. 26676 Haushalte."}, {"id": 355, "lat": "47,9445710600836", "lon": "16,8904176152852", "name": "Weiden", "turbines": 26, "mw_per_turbine": 1.8, "total_mw": 46.800000000000004, "year": 2003, "info": "Type: Enercon, E66/1.800 - Nabenh\u00f6he: 100, Rotordurchmesser: 70", "households": "Dieser Windpark liefert Strom f\u00fcr ca. 26676 Haushalte."}, {"id": 355, "lat": "47,9417835662349", "lon": "16,8939351961523", "name": "Weiden", "turbines": 26, "mw_per_turbine": 1.8, "total_mw": 46.800000000000004, "year": 2003, "info": "Type: Enercon, E66/1.800 - Nabenh\u00f6he: 100, Rotordurchmesser: 70", "households": "Dieser Windpark liefert Strom f\u00fcr ca. 26676 Haushalte."}, {"id": 355, "lat": "47,9547937793724", "lon": "16,9148710103893", "name": "Weiden", "turbines": 26, "mw_per_turbine": 1.8, "total_mw": 46.800000000000004, "year": 2003, "info": "Type: Enercon, E66/1.800 - Nabenh\u00f6he: 100, Rotordurchmesser: 70", "households": "Dieser Windpark liefert Strom f\u00fcr ca. 26676 Haushalte."}, {"id": 355, "lat": "47,9529230675207", "lon": "16,9201389884768", "name": "Weiden", "turbines": 26, "mw_per_turbine": 1.8, "total_mw": 46.800000000000004, "year": 2003, "info": "Type: Enercon, E66/1.800 - Nabenh\u00f6he: 100, Rotordurchmesser: 70", "households": "Dieser Windpark liefert Strom f\u00fcr ca. 26676 Haushalte."}, {"id": 355, "lat": "47,9501684074661", "lon": "16,9170550916478", "name": "Weiden", "turbines": 26, "mw_per_turbine": 1.8, "total_mw": 46.800000000000004, "year": 2003, "info": "Type: Enercon, E66/1.800 - Nabenh\u00f6he: 100, Rotordurchmesser: 70", "households": "Dieser Windpark liefert Strom f\u00fcr ca. 26676 Haushalte."}, {"id": 355, "lat": "47,9499638939474", "lon": "16,9094612095239", "name": "Weiden", "turbines": 26, "mw_per_turbine": 1.8, "total_mw": 46.800000000000004, "year": 2003, "info": "Type: Enercon, E66/1.800 - Nabenh\u00f6he: 100, Rotordurchmesser: 70", "households": "Dieser Windpark liefert Strom f\u00fcr ca. 26676 Haushalte."}, {"id": 355, "lat": "47,9468322844802", "lon": "16,9133223768145", "name": "Weiden", "turbines": 26, "mw_per_turbine": 1.8, "total_mw": 46.800000000000004, "year": 2003, "info": "Type: Enercon, E66/1.800 - Nabenh\u00f6he: 100, Rotordurchmesser: 70", "households": "Dieser Windpark liefert Strom f\u00fcr ca. 26676 Haushalte."}, {"id": 355, "lat": "47,9463413739953", "lon": "16,9053911342745", "name": "Weiden", "turbines": 26, "mw_per_turbine": 1.8, "total_mw": 46.800000000000004, "year": 2003, "info": "Type: Enercon, E66/1.800 - Nabenh\u00f6he: 100, Rotordurchmesser: 70", "households": "Dieser Windpark liefert Strom f\u00fcr ca. 26676 Haushalte."}, {"id": 355, "lat": "47,9444620348196", "lon": "16,9106718889432", "name": "Weiden", "turbines": 26, "mw_per_turbine": 1.8, "total_mw": 46.800000000000004, "year": 2003, "info": "Type: Enercon, E66/1.800 - Nabenh\u00f6he: 100, Rotordurchmesser: 70", "households": "Dieser Windpark liefert Strom f\u00fcr ca. 26676 Haushalte."}, {"id": 355, "lat": "47,9420026150626", "lon": "16,9060527715048", "name": "Weiden", "turbines": 26, "mw_per_turbine": 1.8, "total_mw": 46.800000000000004, "year": 2003, "info": "Type: Enercon, E66/1.800 - Nabenh\u00f6he: 100, Rotordurchmesser: 70", "households": "Dieser Windpark liefert Strom f\u00fcr ca. 26676 Haushalte."}, {"id": 355, "lat": "47,9427185728264", "lon": "16,9013484016595", "name": "Weiden", "turbines": 26, "mw_per_turbine": 1.8, "total_mw": 46.800000000000004, "year": 2003, "info": "Type: Enercon, E66/1.800 - Nabenh\u00f6he: 100, Rotordurchmesser: 70", "households": "Dieser Windpark liefert Strom f\u00fcr ca. 26676 Haushalte."}, {"id": 355, "lat": "47,9392023454106", "lon": "16,9048304660897", "name": "Weiden", "turbines": 26, "mw_per_turbine": 1.8, "total_mw": 46.800000000000004, "year": 2003, "info": "Type: Enercon, E66/1.800 - Nabenh\u00f6he: 100, Rotordurchmesser: 70", "households": "Dieser Windpark liefert Strom f\u00fcr ca. 26676 Haushalte."}, {"id": 355, "lat": "47,9390675243744", "lon": "16,8975334949365", "name": "Weiden", "turbines": 26, "mw_per_turbine": 1.8, "total_mw": 46.800000000000004, "year": 2003, "info": "Type: Enercon, E66/1.800 - Nabenh\u00f6he: 100, Rotordurchmesser: 70", "households": "Dieser Windpark liefert Strom f\u00fcr ca. 26676 Haushalte."}, {"id": 355, "lat": "47,9366534002653", "lon": "16,9018977025026", "name": "Weiden", "turbines": 26, "mw_per_turbine": 1.8, "total_mw": 46.800000000000004, "year": 2003, "info": "Type: Enercon, E66/1.800 - Nabenh\u00f6he: 100, Rotordurchmesser: 70", "households": "Dieser Windpark liefert Strom f\u00fcr ca. 26676 Haushalte."}, {"id": 375, "lat": 48.178739, "lon": 15.436795, "name": "Haindorf-Inning", "turbines": 7, "mw_per_turbine": 1.8, "total_mw": 12.6, "year": 2004, "info": "Type: Enercon, E66/18.70 - Nabenh\u00f6he: 40, Rotordurchmesser: 70.4", "households": "Dieser Windpark liefert Strom f\u00fcr ca. 7182 Haushalte."}, {"id": 375, "lat": 48.178389, "lon": 15.440311, "name": "Haindorf-Inning", "turbines": 7, "mw_per_turbine": 1.8, "total_mw": 12.6, "year": 2004, "info": "Type: Enercon, E66/18.70 - Nabenh\u00f6he: 40, Rotordurchmesser: 70.4", "households": "Dieser Windpark liefert Strom f\u00fcr ca. 7182 Haushalte."}, {"id": 375, "lat": 48.175341, "lon": 15.448579, "name": "Haindorf-Inning", "turbines": 7, "mw_per_turbine": 1.8, "total_mw": 12.6, "year": 2004, "info": "Type: Enercon, E66/18.70 - Nabenh\u00f6he: 40, Rotordurchmesser: 70.4", "households": "Dieser Windpark liefert Strom f\u00fcr ca. 7182 Haushalte."}, {"id": 375, "lat": 48.175182, "lon": 15.453611, "name": "Haindorf-Inning", "turbines": 7, "mw_per_turbine": 1.8, "total_mw": 12.6, "year": 2004, "info": "Type: Enercon, E66/18.70 - Nabenh\u00f6he: 40, Rotordurchmesser: 70.4", "households": "Dieser Windpark liefert Strom f\u00fcr ca. 7182 Haushalte."}, {"id": 375, "lat": 48.174995, "lon": 15.458589, "name": "Haindorf-Inning", "turbines": 7, "mw_per_turbine": 1.8, "total_mw": 12.6, "year": 2004, "info": "Type: Enercon, E66/18.70 - Nabenh\u00f6he: 40, Rotordurchmesser: 70.4", "households": "Dieser Windpark liefert Strom f\u00fcr ca. 7182 Haushalte."}, {"id": 375, "lat": 48.178299, "lon": 15.443862, "name": "Haindorf-Inning", "turbines": 7, "mw_per_turbine": 1.8, "total_mw": 12.6, "year": 2004, "info": "Type: Enercon, E66/18.70 - Nabenh\u00f6he: 40, Rotordurchmesser: 70.4", "households": "Dieser Windpark liefert Strom f\u00fcr ca. 7182 Haushalte."}, {"id": 375, "lat": 48.178828, "lon": 15.432127, "name": "Haindorf-Inning", "turbines": 7, "mw_per_turbine": 1.8, "total_mw": 12.6, "year": 2004, "info": "Type: Enercon, E66/18.70 - Nabenh\u00f6he: 40, Rotordurchmesser: 70.4", "households": "Dieser Windpark liefert Strom f\u00fcr ca. 7182 Haushalte."}, {"id": 379, "lat": 48.0588815, "lon": 16.76465777, "name": "H\u00f6flein V-VI", "turbines": 2, "mw_per_turbine": 2, "total_mw": 4, "year": 2004, "info": "Type: Enercon, E70 E4/2.000 - Nabenh\u00f6he: 78, Rotordurchmesser: 71", "households": "Dieser Windpark liefert Strom f\u00fcr ca. 2280 Haushalte."}, {"id": 379, "lat": 48.05596256, "lon": 16.76299547, "name": "H\u00f6flein V-VI", "turbines": 2, "mw_per_turbine": 2, "total_mw": 4, "year": 2004, "info": "Type: Enercon, E70 E4/2.000 - Nabenh\u00f6he: 78, Rotordurchmesser: 71", "households": "Dieser Windpark liefert Strom f\u00fcr ca. 2280 Haushalte."}, {"id": 378, "lat": 48.089381, "lon": 16.893364, "name": "Hollern I", "turbines": 9, "mw_per_turbine": 2, "total_mw": 18, "year": 2004, "info": "Type: Enercon, E66/20.70 - Nabenh\u00f6he: 85, Rotordurchmesser: 70.4", "households": "Dieser Windpark liefert Strom f\u00fcr ca. 10260 Haushalte."}, {"id": 378, "lat": 48.092196, "lon": 16.885944, "name": "Hollern I", "turbines": 9, "mw_per_turbine": 2, "total_mw": 18, "year": 2004, "info": "Type: Enercon, E66/20.70 - Nabenh\u00f6he: 85, Rotordurchmesser: 70.4", "households": "Dieser Windpark liefert Strom f\u00fcr ca. 10260 Haushalte."}, {"id": 378, "lat": 48.094375, "lon": 16.890975, "name": "Hollern I", "turbines": 9, "mw_per_turbine": 2, "total_mw": 18, "year": 2004, "info": "Type: Enercon, E66/20.70 - Nabenh\u00f6he: 85, Rotordurchmesser: 70.4", "households": "Dieser Windpark liefert Strom f\u00fcr ca. 10260 Haushalte."}, {"id": 378, "lat": 48.085129, "lon": 16.904016, "name": "Hollern I", "turbines": 9, "mw_per_turbine": 2, "total_mw": 18, "year": 2004, "info": "Type: Enercon, E66/20.70 - Nabenh\u00f6he: 85, Rotordurchmesser: 70.4", "households": "Dieser Windpark liefert Strom f\u00fcr ca. 10260 Haushalte."}, {"id": 378, "lat": 48.095285, "lon": 16.886863, "name": "Hollern I", "turbines": 9, "mw_per_turbine": 2, "total_mw": 18, "year": 2004, "info": "Type: Enercon, E66/20.70 - Nabenh\u00f6he: 85, Rotordurchmesser: 70.4", "households": "Dieser Windpark liefert Strom f\u00fcr ca. 10260 Haushalte."}, {"id": 378, "lat": 48.095668, "lon": 16.878248, "name": "Hollern I", "turbines": 9, "mw_per_turbine": 2, "total_mw": 18, "year": 2004, "info": "Type: Enercon, E66/20.70 - Nabenh\u00f6he: 85, Rotordurchmesser: 70.4", "households": "Dieser Windpark liefert Strom f\u00fcr ca. 10260 Haushalte."}, {"id": 378, "lat": 48.093137, "lon": 16.899674, "name": "Hollern I", "turbines": 9, "mw_per_turbine": 2, "total_mw": 18, "year": 2004, "info": "Type: Enercon, E66/20.70 - Nabenh\u00f6he: 85, Rotordurchmesser: 70.4", "households": "Dieser Windpark liefert Strom f\u00fcr ca. 10260 Haushalte."}, {"id": 378, "lat": 48.088701, "lon": 16.898229, "name": "Hollern I", "turbines": 9, "mw_per_turbine": 2, "total_mw": 18, "year": 2004, "info": "Type: Enercon, E66/20.70 - Nabenh\u00f6he: 85, Rotordurchmesser: 70.4", "households": "Dieser Windpark liefert Strom f\u00fcr ca. 10260 Haushalte."}, {"id": 378, "lat": 48.087762, "lon": 16.904461, "name": "Hollern I", "turbines": 9, "mw_per_turbine": 2, "total_mw": 18, "year": 2004, "info": "Type: Enercon, E66/20.70 - Nabenh\u00f6he: 85, Rotordurchmesser: 70.4", "households": "Dieser Windpark liefert Strom f\u00fcr ca. 10260 Haushalte."}, {"id": 485, "lat": 48.11497, "lon": 15.39688, "name": "Kilb", "turbines": 1, "mw_per_turbine": 0.6, "total_mw": 0.6, "year": 2004, "info": "Type: Bonus, B41/600 - Nabenh\u00f6he: 135.4, Rotordurchmesser: 44", "households": "Dieser Windpark liefert Strom f\u00fcr ca. 342 Haushalte."}, {"id": 374, "lat": 48.068298, "lon": 17.058526, "name": "Kittsee", "turbines": 12, "mw_per_turbine": 1.8, "total_mw": 21.6, "year": 2004, "info": "Type: Enercon, E66/1.800 - Nabenh\u00f6he: 98, Rotordurchmesser: 66", "households": "Dieser Windpark liefert Strom f\u00fcr ca. 12312 Haushalte."}, {"id": 374, "lat": 48.07108, "lon": 17.053721, "name": "Kittsee", "turbines": 12, "mw_per_turbine": 1.8, "total_mw": 21.6, "year": 2004, "info": "Type: Enercon, E66/1.800 - Nabenh\u00f6he: 98, Rotordurchmesser: 66", "households": "Dieser Windpark liefert Strom f\u00fcr ca. 12312 Haushalte."}, {"id": 374, "lat": 48.074778, "lon": 17.044754, "name": "Kittsee", "turbines": 12, "mw_per_turbine": 1.8, "total_mw": 21.6, "year": 2004, "info": "Type: Enercon, E66/1.800 - Nabenh\u00f6he: 98, Rotordurchmesser: 66", "households": "Dieser Windpark liefert Strom f\u00fcr ca. 12312 Haushalte."}, {"id": 374, "lat": 48.07188, "lon": 17.042125, "name": "Kittsee", "turbines": 12, "mw_per_turbine": 1.8, "total_mw": 21.6, "year": 2004, "info": "Type: Enercon, E66/1.800 - Nabenh\u00f6he: 98, Rotordurchmesser: 66", "households": "Dieser Windpark liefert Strom f\u00fcr ca. 12312 Haushalte."}, {"id": 374, "lat": 48.065677, "lon": 17.056209, "name": "Kittsee", "turbines": 12, "mw_per_turbine": 1.8, "total_mw": 21.6, "year": 2004, "info": "Type: Enercon, E66/1.800 - Nabenh\u00f6he: 98, Rotordurchmesser: 66", "households": "Dieser Windpark liefert Strom f\u00fcr ca. 12312 Haushalte."}, {"id": 374, "lat": 48.071028, "lon": 17.060577, "name": "Kittsee", "turbines": 12, "mw_per_turbine": 1.8, "total_mw": 21.6, "year": 2004, "info": "Type: Enercon, E66/1.800 - Nabenh\u00f6he: 98, Rotordurchmesser: 66", "households": "Dieser Windpark liefert Strom f\u00fcr ca. 12312 Haushalte."}, {"id": 374, "lat": 48.070585, "lon": 17.046468, "name": "Kittsee", "turbines": 12, "mw_per_turbine": 1.8, "total_mw": 21.6, "year": 2004, "info": "Type: Enercon, E66/1.800 - Nabenh\u00f6he: 98, Rotordurchmesser: 66", "households": "Dieser Windpark liefert Strom f\u00fcr ca. 12312 Haushalte."}, {"id": 374, "lat": 48.073295, "lon": 17.048961, "name": "Kittsee", "turbines": 12, "mw_per_turbine": 1.8, "total_mw": 21.6, "year": 2004, "info": "Type: Enercon, E66/1.800 - Nabenh\u00f6he: 98, Rotordurchmesser: 66", "households": "Dieser Windpark liefert Strom f\u00fcr ca. 12312 Haushalte."}, {"id": 374, "lat": 48.077585, "lon": 17.047423, "name": "Kittsee", "turbines": 12, "mw_per_turbine": 1.8, "total_mw": 21.6, "year": 2004, "info": "Type: Enercon, E66/1.800 - Nabenh\u00f6he: 98, Rotordurchmesser: 66", "households": "Dieser Windpark liefert Strom f\u00fcr ca. 12312 Haushalte."}, {"id": 374, "lat": 48.075987, "lon": 17.051414, "name": "Kittsee", "turbines": 12, "mw_per_turbine": 1.8, "total_mw": 21.6, "year": 2004, "info": "Type: Enercon, E66/1.800 - Nabenh\u00f6he: 98, Rotordurchmesser: 66", "households": "Dieser Windpark liefert Strom f\u00fcr ca. 12312 Haushalte."}, {"id": 374, "lat": 48.074004, "lon": 17.056432, "name": "Kittsee", "turbines": 12, "mw_per_turbine": 1.8, "total_mw": 21.6, "year": 2004, "info": "Type: Enercon, E66/1.800 - Nabenh\u00f6he: 98, Rotordurchmesser: 66", "households": "Dieser Windpark liefert Strom f\u00fcr ca. 12312 Haushalte."}, {"id": 374, "lat": 48.068245, "lon": 17.051199, "name": "Kittsee", "turbines": 12, "mw_per_turbine": 1.8, "total_mw": 21.6, "year": 2004, "info": "Type: Enercon, E66/1.800 - Nabenh\u00f6he: 98, Rotordurchmesser: 66", "households": "Dieser Windpark liefert Strom f\u00fcr ca. 12312 Haushalte."}, {"id": 370, "lat": 48.28412, "lon": 15.81491, "name": "Langmannersdorf I", "turbines": 1, "mw_per_turbine": 2, "total_mw": 2, "year": 2004, "info": "Type: Vestas, V80/2000 - Nabenh\u00f6he: 98, Rotordurchmesser: 80", "households": "Dieser Windpark liefert Strom f\u00fcr ca. 1140 Haushalte."}, {"id": 368, "lat": 48.284722, "lon": 15.82, "name": "Langmannersdorf II", "turbines": 2, "mw_per_turbine": 2, "total_mw": 4, "year": 2004, "info": "Type: Vestas, V80/2000 - Nabenh\u00f6he: 100, Rotordurchmesser: 80", "households": "Dieser Windpark liefert Strom f\u00fcr ca. 2280 Haushalte."}, {"id": 368, "lat": 48.283889, "lon": 15.825556, "name": "Langmannersdorf II", "turbines": 2, "mw_per_turbine": 2, "total_mw": 4, "year": 2004, "info": "Type: Vestas, V80/2000 - Nabenh\u00f6he: 100, Rotordurchmesser: 80", "households": "Dieser Windpark liefert Strom f\u00fcr ca. 2280 Haushalte."}, {"id": 363, "lat": 48.281772, "lon": 16.649188, "name": "Markgrafneusiedl II", "turbines": 2, "mw_per_turbine": 1.8, "total_mw": 3.6, "year": 2004, "info": "Type: Enercon, E66/18.70 - Nabenh\u00f6he: 100, Rotordurchmesser: 70.4", "households": "Dieser Windpark liefert Strom f\u00fcr ca. 2052 Haushalte."}, {"id": 363, "lat": 48.283578, "lon": 16.649607, "name": "Markgrafneusiedl II", "turbines": 2, "mw_per_turbine": 1.8, "total_mw": 3.6, "year": 2004, "info": "Type: Enercon, E66/18.70 - Nabenh\u00f6he: 100, Rotordurchmesser: 70.4", "households": "Dieser Windpark liefert Strom f\u00fcr ca. 2052 Haushalte."}, {"id": 369, "lat": 48.343596, "lon": 16.504593, "name": "Obersdorf IV-V", "turbines": 2, "mw_per_turbine": 1.8, "total_mw": 3.6, "year": 2004, "info": "Type: Enercon, E66/18.70 - Nabenh\u00f6he: 86, Rotordurchmesser: 70.4", "households": "Dieser Windpark liefert Strom f\u00fcr ca. 2052 Haushalte."}, {"id": 369, "lat": 48.349946, "lon": 16.516217, "name": "Obersdorf IV-V", "turbines": 2, "mw_per_turbine": 1.8, "total_mw": 3.6, "year": 2004, "info": "Type: Enercon, E66/18.70 - Nabenh\u00f6he: 86, Rotordurchmesser: 70.4", "households": "Dieser Windpark liefert Strom f\u00fcr ca. 2052 Haushalte."}, {"id": 365, "lat": 48.098445, "lon": 16.851345, "name": "Petronell-Carnuntum", "turbines": 11, "mw_per_turbine": 2, "total_mw": 22, "year": 2004, "info": "Type: Enercon, E66/20.70 - Nabenh\u00f6he: 86, Rotordurchmesser: 70.4", "households": "Dieser Windpark liefert Strom f\u00fcr ca. 12540 Haushalte."}, {"id": 365, "lat": 48.110266, "lon": 16.838343, "name": "Petronell-Carnuntum", "turbines": 11, "mw_per_turbine": 2, "total_mw": 22, "year": 2004, "info": "Type: Enercon, E66/20.70 - Nabenh\u00f6he: 86, Rotordurchmesser: 70.4", "households": "Dieser Windpark liefert Strom f\u00fcr ca. 12540 Haushalte."}, {"id": 365, "lat": 48.108227, "lon": 16.833597, "name": "Petronell-Carnuntum", "turbines": 11, "mw_per_turbine": 2, "total_mw": 22, "year": 2004, "info": "Type: Enercon, E66/20.70 - Nabenh\u00f6he: 86, Rotordurchmesser: 70.4", "households": "Dieser Windpark liefert Strom f\u00fcr ca. 12540 Haushalte."}, {"id": 365, "lat": 48.106226, "lon": 16.840721, "name": "Petronell-Carnuntum", "turbines": 11, "mw_per_turbine": 2, "total_mw": 22, "year": 2004, "info": "Type: Enercon, E66/20.70 - Nabenh\u00f6he: 86, Rotordurchmesser: 70.4", "households": "Dieser Windpark liefert Strom f\u00fcr ca. 12540 Haushalte."}, {"id": 365, "lat": 48.097203, "lon": 16.835249, "name": "Petronell-Carnuntum", "turbines": 11, "mw_per_turbine": 2, "total_mw": 22, "year": 2004, "info": "Type: Enercon, E66/20.70 - Nabenh\u00f6he: 86, Rotordurchmesser: 70.4", "households": "Dieser Windpark liefert Strom f\u00fcr ca. 12540 Haushalte."}, {"id": 365, "lat": 48.097078, "lon": 16.841155, "name": "Petronell-Carnuntum", "turbines": 11, "mw_per_turbine": 2, "total_mw": 22, "year": 2004, "info": "Type: Enercon, E66/20.70 - Nabenh\u00f6he: 86, Rotordurchmesser: 70.4", "households": "Dieser Windpark liefert Strom f\u00fcr ca. 12540 Haushalte."}, {"id": 365, "lat": 48.089072, "lon": 16.833331, "name": "Petronell-Carnuntum", "turbines": 11, "mw_per_turbine": 2, "total_mw": 22, "year": 2004, "info": "Type: Enercon, E66/20.70 - Nabenh\u00f6he: 86, Rotordurchmesser: 70.4", "households": "Dieser Windpark liefert Strom f\u00fcr ca. 12540 Haushalte."}, {"id": 365, "lat": 48.093253, "lon": 16.845803, "name": "Petronell-Carnuntum", "turbines": 11, "mw_per_turbine": 2, "total_mw": 22, "year": 2004, "info": "Type: Enercon, E66/20.70 - Nabenh\u00f6he: 86, Rotordurchmesser: 70.4", "households": "Dieser Windpark liefert Strom f\u00fcr ca. 12540 Haushalte."}, {"id": 365, "lat": 48.090532, "lon": 16.840849, "name": "Petronell-Carnuntum", "turbines": 11, "mw_per_turbine": 2, "total_mw": 22, "year": 2004, "info": "Type: Enercon, E66/20.70 - Nabenh\u00f6he: 86, Rotordurchmesser: 70.4", "households": "Dieser Windpark liefert Strom f\u00fcr ca. 12540 Haushalte."}, {"id": 365, "lat": 48.087853, "lon": 16.838635, "name": "Petronell-Carnuntum", "turbines": 11, "mw_per_turbine": 2, "total_mw": 22, "year": 2004, "info": "Type: Enercon, E66/20.70 - Nabenh\u00f6he: 86, Rotordurchmesser: 70.4", "households": "Dieser Windpark liefert Strom f\u00fcr ca. 12540 Haushalte."}, {"id": 365, "lat": 48.09415, "lon": 16.836119, "name": "Petronell-Carnuntum", "turbines": 11, "mw_per_turbine": 2, "total_mw": 22, "year": 2004, "info": "Type: Enercon, E66/20.70 - Nabenh\u00f6he: 86, Rotordurchmesser: 70.4", "households": "Dieser Windpark liefert Strom f\u00fcr ca. 12540 Haushalte."}, {"id": 494, "lat": 47.75905, "lon": 16.42026, "name": "P\u00f6ttelsdorf I", "turbines": 1, "mw_per_turbine": 2, "total_mw": 2, "year": 2004, "info": "Type: DeWind, D8 - Nabenh\u00f6he: 108, Rotordurchmesser: 80", "households": "Dieser Windpark liefert Strom f\u00fcr ca. 1140 Haushalte."}, {"id": 403, "lat": 48.59817, "lon": 16.12124, "name": "Aspersdorf", "turbines": 1, "mw_per_turbine": 2, "total_mw": 2, "year": 2005, "info": "Type: Vestas, V90/2000 - Nabenh\u00f6he: 78, Rotordurchmesser: 90", "households": "Dieser Windpark liefert Strom f\u00fcr ca. 1140 Haushalte."}, {"id": 395, "lat": 47.57675, "lon": 16.61784, "name": "Deutschkreutz", "turbines": 7, "mw_per_turbine": 2, "total_mw": 14, "year": 2005, "info": "Type: Repower, MM82 - Nabenh\u00f6he: 113.5, Rotordurchmesser: 82", "households": "Dieser Windpark liefert Strom f\u00fcr ca. 7980 Haushalte."}, {"id": 395, "lat": 47.582895, "lon": 16.625268, "name": "Deutschkreutz", "turbines": 7, "mw_per_turbine": 2, "total_mw": 14, "year": 2005, "info": "Type: Repower, MM82 - Nabenh\u00f6he: 113.5, Rotordurchmesser: 82", "households": "Dieser Windpark liefert Strom f\u00fcr ca. 7980 Haushalte."}, {"id": 395, "lat": 47.583097, "lon": 16.620805, "name": "Deutschkreutz", "turbines": 7, "mw_per_turbine": 2, "total_mw": 14, "year": 2005, "info": "Type: Repower, MM82 - Nabenh\u00f6he: 113.5, Rotordurchmesser: 82", "households": "Dieser Windpark liefert Strom f\u00fcr ca. 7980 Haushalte."}, {"id": 395, "lat": 47.579602, "lon": 16.620924, "name": "Deutschkreutz", "turbines": 7, "mw_per_turbine": 2, "total_mw": 14, "year": 2005, "info": "Type: Repower, MM82 - Nabenh\u00f6he: 113.5, Rotordurchmesser: 82", "households": "Dieser Windpark liefert Strom f\u00fcr ca. 7980 Haushalte."}, {"id": 395, "lat": 47.57751, "lon": 16.61373, "name": "Deutschkreutz", "turbines": 7, "mw_per_turbine": 2, "total_mw": 14, "year": 2005, "info": "Type: Repower, MM82 - Nabenh\u00f6he: 113.5, Rotordurchmesser: 82", "households": "Dieser Windpark liefert Strom f\u00fcr ca. 7980 Haushalte."}, {"id": 395, "lat": 47.58113, "lon": 16.6288, "name": "Deutschkreutz", "turbines": 7, "mw_per_turbine": 2, "total_mw": 14, "year": 2005, "info": "Type: Repower, MM82 - Nabenh\u00f6he: 113.5, Rotordurchmesser: 82", "households": "Dieser Windpark liefert Strom f\u00fcr ca. 7980 Haushalte."}, {"id": 395, "lat": 47.581563, "lon": 16.614414, "name": "Deutschkreutz", "turbines": 7, "mw_per_turbine": 2, "total_mw": 14, "year": 2005, "info": "Type: Repower, MM82 - Nabenh\u00f6he: 113.5, Rotordurchmesser: 82", "households": "Dieser Windpark liefert Strom f\u00fcr ca. 7980 Haushalte."}, {"id": 386, "lat": 48.337333, "lon": 16.522119, "name": "Eibesbrunn I-IV", "turbines": 4, "mw_per_turbine": 2, "total_mw": 8, "year": 2005, "info": "Type: Enercon, E70 E4/2.000 - Nabenh\u00f6he: 80, Rotordurchmesser: 71", "households": "Dieser Windpark liefert Strom f\u00fcr ca. 4560 Haushalte."}, {"id": 386, "lat": 48.333387, "lon": 16.523334, "name": "Eibesbrunn I-IV", "turbines": 4, "mw_per_turbine": 2, "total_mw": 8, "year": 2005, "info": "Type: Enercon, E70 E4/2.000 - Nabenh\u00f6he: 80, Rotordurchmesser: 71", "households": "Dieser Windpark liefert Strom f\u00fcr ca. 4560 Haushalte."}, {"id": 386, "lat": 48.341401, "lon": 16.521045, "name": "Eibesbrunn I-IV", "turbines": 4, "mw_per_turbine": 2, "total_mw": 8, "year": 2005, "info": "Type: Enercon, E70 E4/2.000 - Nabenh\u00f6he: 80, Rotordurchmesser: 71", "households": "Dieser Windpark liefert Strom f\u00fcr ca. 4560 Haushalte."}, {"id": 386, "lat": 48.330402, "lon": 16.524509, "name": "Eibesbrunn I-IV", "turbines": 4, "mw_per_turbine": 2, "total_mw": 8, "year": 2005, "info": "Type: Enercon, E70 E4/2.000 - Nabenh\u00f6he: 80, Rotordurchmesser: 71", "households": "Dieser Windpark liefert Strom f\u00fcr ca. 4560 Haushalte."}, {"id": 389, "lat": 48.5189, "lon": 16.58604, "name": "H\u00f6bersbrunn I", "turbines": 1, "mw_per_turbine": 2, "total_mw": 2, "year": 2005, "info": "Type: Enercon, E70 E4/2.000 - Nabenh\u00f6he: 100, Rotordurchmesser: 71", "households": "Dieser Windpark liefert Strom f\u00fcr ca. 1140 Haushalte."}, {"id": 380, "lat": 48.79997, "lon": 15.52272, "name": "Japons", "turbines": 1, "mw_per_turbine": 2, "total_mw": 2, "year": 2005, "info": "Type: Enercon, E70 E4 - Nabenh\u00f6he: 78, Rotordurchmesser: 71", "households": "Dieser Windpark liefert Strom f\u00fcr ca. 1140 Haushalte."}, {"id": 399, "lat": 48.49469, "lon": 16.42814, "name": "Kreuzstetten", "turbines": 10, "mw_per_turbine": 2, "total_mw": 20, "year": 2005, "info": "Type: Vestas, V90/2000 - Nabenh\u00f6he: 105, Rotordurchmesser: 90", "households": "Dieser Windpark liefert Strom f\u00fcr ca. 11400 Haushalte."}, {"id": 399, "lat": 48.503649, "lon": 16.437701, "name": "Kreuzstetten", "turbines": 10, "mw_per_turbine": 2, "total_mw": 20, "year": 2005, "info": "Type: Vestas, V90/2000 - Nabenh\u00f6he: 105, Rotordurchmesser: 90", "households": "Dieser Windpark liefert Strom f\u00fcr ca. 11400 Haushalte."}, {"id": 399, "lat": 48.5001, "lon": 16.43996, "name": "Kreuzstetten", "turbines": 10, "mw_per_turbine": 2, "total_mw": 20, "year": 2005, "info": "Type: Vestas, V90/2000 - Nabenh\u00f6he: 105, Rotordurchmesser: 90", "households": "Dieser Windpark liefert Strom f\u00fcr ca. 11400 Haushalte."}, {"id": 399, "lat": 48.49899, "lon": 16.4332, "name": "Kreuzstetten", "turbines": 10, "mw_per_turbine": 2, "total_mw": 20, "year": 2005, "info": "Type: Vestas, V90/2000 - Nabenh\u00f6he: 105, Rotordurchmesser: 90", "households": "Dieser Windpark liefert Strom f\u00fcr ca. 11400 Haushalte."}, {"id": 399, "lat": 48.50588, "lon": 16.44257, "name": "Kreuzstetten", "turbines": 10, "mw_per_turbine": 2, "total_mw": 20, "year": 2005, "info": "Type: Vestas, V90/2000 - Nabenh\u00f6he: 105, Rotordurchmesser: 90", "households": "Dieser Windpark liefert Strom f\u00fcr ca. 11400 Haushalte."}, {"id": 399, "lat": 48.50939, "lon": 16.44313, "name": "Kreuzstetten", "turbines": 10, "mw_per_turbine": 2, "total_mw": 20, "year": 2005, "info": "Type: Vestas, V90/2000 - Nabenh\u00f6he: 105, Rotordurchmesser: 90", "households": "Dieser Windpark liefert Strom f\u00fcr ca. 11400 Haushalte."}, {"id": 399, "lat": 48.50272, "lon": 16.44529, "name": "Kreuzstetten", "turbines": 10, "mw_per_turbine": 2, "total_mw": 20, "year": 2005, "info": "Type: Vestas, V90/2000 - Nabenh\u00f6he: 105, Rotordurchmesser: 90", "households": "Dieser Windpark liefert Strom f\u00fcr ca. 11400 Haushalte."}, {"id": 399, "lat": 48.50417, "lon": 16.45159, "name": "Kreuzstetten", "turbines": 10, "mw_per_turbine": 2, "total_mw": 20, "year": 2005, "info": "Type: Vestas, V90/2000 - Nabenh\u00f6he: 105, Rotordurchmesser: 90", "households": "Dieser Windpark liefert Strom f\u00fcr ca. 11400 Haushalte."}, {"id": 399, "lat": 48.50249, "lon": 16.45775, "name": "Kreuzstetten", "turbines": 10, "mw_per_turbine": 2, "total_mw": 20, "year": 2005, "info": "Type: Vestas, V90/2000 - Nabenh\u00f6he: 105, Rotordurchmesser: 90", "households": "Dieser Windpark liefert Strom f\u00fcr ca. 11400 Haushalte."}, {"id": 399, "lat": 48.50826, "lon": 16.45665, "name": "Kreuzstetten", "turbines": 10, "mw_per_turbine": 2, "total_mw": 20, "year": 2005, "info": "Type: Vestas, V90/2000 - Nabenh\u00f6he: 105, Rotordurchmesser: 90", "households": "Dieser Windpark liefert Strom f\u00fcr ca. 11400 Haushalte."}, {"id": 410, "lat": 48.056944, "lon": 16.901944, "name": "Neuhof II", "turbines": 2, "mw_per_turbine": 2, "total_mw": 4, "year": 2005, "info": "Type: Vestas, V90/2000 - Nabenh\u00f6he: 95, Rotordurchmesser: 90", "households": "Dieser Windpark liefert Strom f\u00fcr ca. 2280 Haushalte."}, {"id": 410, "lat": 48.054167, "lon": 16.899722, "name": "Neuhof II", "turbines": 2, "mw_per_turbine": 2, "total_mw": 4, "year": 2005, "info": "Type: Vestas, V90/2000 - Nabenh\u00f6he: 95, Rotordurchmesser: 90", "households": "Dieser Windpark liefert Strom f\u00fcr ca. 2280 Haushalte."}, {"id": 381, "lat": 47.767022, "lon": 16.422021, "name": "P\u00f6ttelsdorf II", "turbines": 4, "mw_per_turbine": 2.3, "total_mw": 9.2, "year": 2005, "info": "Type: Bonus, Bonus 2300 - Nabenh\u00f6he: 98, Rotordurchmesser: 82", "households": "Dieser Windpark liefert Strom f\u00fcr ca. 5244 Haushalte."}, {"id": 381, "lat": 47.76473, "lon": 16.41896, "name": "P\u00f6ttelsdorf II", "turbines": 4, "mw_per_turbine": 2.3, "total_mw": 9.2, "year": 2005, "info": "Type: Bonus, Bonus 2300 - Nabenh\u00f6he: 98, Rotordurchmesser: 82", "households": "Dieser Windpark liefert Strom f\u00fcr ca. 5244 Haushalte."}, {"id": 381, "lat": 47.76261, "lon": 16.41583, "name": "P\u00f6ttelsdorf II", "turbines": 4, "mw_per_turbine": 2.3, "total_mw": 9.2, "year": 2005, "info": "Type: Bonus, Bonus 2300 - Nabenh\u00f6he: 98, Rotordurchmesser: 82", "households": "Dieser Windpark liefert Strom f\u00fcr ca. 5244 Haushalte."}, {"id": 381, "lat": 47.7686, "lon": 16.41513, "name": "P\u00f6ttelsdorf II", "turbines": 4, "mw_per_turbine": 2.3, "total_mw": 9.2, "year": 2005, "info": "Type: Bonus, Bonus 2300 - Nabenh\u00f6he: 98, Rotordurchmesser: 82", "households": "Dieser Windpark liefert Strom f\u00fcr ca. 5244 Haushalte."}, {"id": 408, "lat": 48.246667, "lon": 15.725278, "name": "Pottenbrunn III", "turbines": 1, "mw_per_turbine": 2, "total_mw": 2, "year": 2005, "info": "Type: Vestas, V80/2000 - Nabenh\u00f6he: 85, Rotordurchmesser: 80", "households": "Dieser Windpark liefert Strom f\u00fcr ca. 1140 Haushalte."}, {"id": 398, "lat": 48.610383, "lon": 16.641578, "name": "Poysdorf-Wilfersdorf", "turbines": 9, "mw_per_turbine": 2, "total_mw": 18, "year": 2005, "info": "Type: Vestas, V90/2000 - Nabenh\u00f6he: 105, Rotordurchmesser: 90", "households": "Dieser Windpark liefert Strom f\u00fcr ca. 10260 Haushalte."}, {"id": 398, "lat": 48.60555, "lon": 16.632722, "name": "Poysdorf-Wilfersdorf", "turbines": 9, "mw_per_turbine": 2, "total_mw": 18, "year": 2005, "info": "Type: Vestas, V90/2000 - Nabenh\u00f6he: 105, Rotordurchmesser: 90", "households": "Dieser Windpark liefert Strom f\u00fcr ca. 10260 Haushalte."}, {"id": 398, "lat": 48.612158, "lon": 16.632758, "name": "Poysdorf-Wilfersdorf", "turbines": 9, "mw_per_turbine": 2, "total_mw": 18, "year": 2005, "info": "Type: Vestas, V90/2000 - Nabenh\u00f6he: 105, Rotordurchmesser: 90", "households": "Dieser Windpark liefert Strom f\u00fcr ca. 10260 Haushalte."}, {"id": 398, "lat": 48.620453, "lon": 16.617739, "name": "Poysdorf-Wilfersdorf", "turbines": 9, "mw_per_turbine": 2, "total_mw": 18, "year": 2005, "info": "Type: Vestas, V90/2000 - Nabenh\u00f6he: 105, Rotordurchmesser: 90", "households": "Dieser Windpark liefert Strom f\u00fcr ca. 10260 Haushalte."}, {"id": 398, "lat": 48.6201, "lon": 16.610942, "name": "Poysdorf-Wilfersdorf", "turbines": 9, "mw_per_turbine": 2, "total_mw": 18, "year": 2005, "info": "Type: Vestas, V90/2000 - Nabenh\u00f6he: 105, Rotordurchmesser: 90", "households": "Dieser Windpark liefert Strom f\u00fcr ca. 10260 Haushalte."}, {"id": 398, "lat": 48.628089, "lon": 16.613564, "name": "Poysdorf-Wilfersdorf", "turbines": 9, "mw_per_turbine": 2, "total_mw": 18, "year": 2005, "info": "Type: Vestas, V90/2000 - Nabenh\u00f6he: 105, Rotordurchmesser: 90", "households": "Dieser Windpark liefert Strom f\u00fcr ca. 10260 Haushalte."}, {"id": 398, "lat": 48.630186, "lon": 16.616653, "name": "Poysdorf-Wilfersdorf", "turbines": 9, "mw_per_turbine": 2, "total_mw": 18, "year": 2005, "info": "Type: Vestas, V90/2000 - Nabenh\u00f6he: 105, Rotordurchmesser: 90", "households": "Dieser Windpark liefert Strom f\u00fcr ca. 10260 Haushalte."}, {"id": 398, "lat": 48.634558, "lon": 16.622294, "name": "Poysdorf-Wilfersdorf", "turbines": 9, "mw_per_turbine": 2, "total_mw": 18, "year": 2005, "info": "Type: Vestas, V90/2000 - Nabenh\u00f6he: 105, Rotordurchmesser: 90", "households": "Dieser Windpark liefert Strom f\u00fcr ca. 10260 Haushalte."}, {"id": 398, "lat": 48.638, "lon": 16.616697, "name": "Poysdorf-Wilfersdorf", "turbines": 9, "mw_per_turbine": 2, "total_mw": 18, "year": 2005, "info": "Type: Vestas, V90/2000 - Nabenh\u00f6he: 105, Rotordurchmesser: 90", "households": "Dieser Windpark liefert Strom f\u00fcr ca. 10260 Haushalte."}, {"id": 390, "lat": 48.618372, "lon": 16.696353, "name": "Rannersdorf", "turbines": 4, "mw_per_turbine": 2, "total_mw": 8, "year": 2005, "info": "Type: Vestas, V90/2000 - Nabenh\u00f6he: 98, Rotordurchmesser: 90", "households": "Dieser Windpark liefert Strom f\u00fcr ca. 4560 Haushalte."}, {"id": 390, "lat": 48.620347, "lon": 16.688825, "name": "Rannersdorf", "turbines": 4, "mw_per_turbine": 2, "total_mw": 8, "year": 2005, "info": "Type: Vestas, V90/2000 - Nabenh\u00f6he: 98, Rotordurchmesser: 90", "households": "Dieser Windpark liefert Strom f\u00fcr ca. 4560 Haushalte."}, {"id": 390, "lat": 48.623483, "lon": 16.683122, "name": "Rannersdorf", "turbines": 4, "mw_per_turbine": 2, "total_mw": 8, "year": 2005, "info": "Type: Vestas, V90/2000 - Nabenh\u00f6he: 98, Rotordurchmesser: 90", "households": "Dieser Windpark liefert Strom f\u00fcr ca. 4560 Haushalte."}, {"id": 390, "lat": 48.627514, "lon": 16.680003, "name": "Rannersdorf", "turbines": 4, "mw_per_turbine": 2, "total_mw": 8, "year": 2005, "info": "Type: Vestas, V90/2000 - Nabenh\u00f6he: 98, Rotordurchmesser: 90", "households": "Dieser Windpark liefert Strom f\u00fcr ca. 4560 Haushalte."}, {"id": 384, "lat": 48.517912, "lon": 16.601102, "name": "Schrick V", "turbines": 1, "mw_per_turbine": 2, "total_mw": 2, "year": 2005, "info": "Type: Enercon, E70 E4/2.000 - Nabenh\u00f6he: 98, Rotordurchmesser: 71", "households": "Dieser Windpark liefert Strom f\u00fcr ca. 1140 Haushalte."}, {"id": 402, "lat": 47.76186, "lon": 16.40635, "name": "Sigle\u00df", "turbines": 3, "mw_per_turbine": 2, "total_mw": 6, "year": 2005, "info": "Type: Vestas, V90/2000 - Nabenh\u00f6he: 100, Rotordurchmesser: 90", "households": "Dieser Windpark liefert Strom f\u00fcr ca. 3420 Haushalte."}, {"id": 402, "lat": 47.76609, "lon": 16.41272, "name": "Sigle\u00df", "turbines": 3, "mw_per_turbine": 2, "total_mw": 6, "year": 2005, "info": "Type: Vestas, V90/2000 - Nabenh\u00f6he: 100, Rotordurchmesser: 90", "households": "Dieser Windpark liefert Strom f\u00fcr ca. 3420 Haushalte."}, {"id": 402, "lat": 47.76368, "lon": 16.41002, "name": "Sigle\u00df", "turbines": 3, "mw_per_turbine": 2, "total_mw": 6, "year": 2005, "info": "Type: Vestas, V90/2000 - Nabenh\u00f6he: 100, Rotordurchmesser: 90", "households": "Dieser Windpark liefert Strom f\u00fcr ca. 3420 Haushalte."}, {"id": 407, "lat": 48.449554, "lon": 16.710371, "name": "Spannberg I", "turbines": 3, "mw_per_turbine": 2, "total_mw": 6, "year": 2005, "info": "Type: Vestas, V80/2000 - Nabenh\u00f6he: 105, Rotordurchmesser: 90", "households": "Dieser Windpark liefert Strom f\u00fcr ca. 3420 Haushalte."}, {"id": 407, "lat": 48.451541, "lon": 16.706044, "name": "Spannberg I", "turbines": 3, "mw_per_turbine": 2, "total_mw": 6, "year": 2005, "info": "Type: Vestas, V80/2000 - Nabenh\u00f6he: 105, Rotordurchmesser: 90", "households": "Dieser Windpark liefert Strom f\u00fcr ca. 3420 Haushalte."}, {"id": 407, "lat": 48.451391, "lon": 16.699649, "name": "Spannberg I", "turbines": 3, "mw_per_turbine": 2, "total_mw": 6, "year": 2005, "info": "Type: Vestas, V80/2000 - Nabenh\u00f6he: 105, Rotordurchmesser: 90", "households": "Dieser Windpark liefert Strom f\u00fcr ca. 3420 Haushalte."}, {"id": 397, "lat": 48.193005, "lon": 15.657746, "name": "Stattersdorf", "turbines": 4, "mw_per_turbine": 0.6, "total_mw": 2.4, "year": 2005, "info": "Type: Enercon, E40/6.44 - Nabenh\u00f6he: 112, Rotordurchmesser: 44", "households": "Dieser Windpark liefert Strom f\u00fcr ca. 1368 Haushalte."}, {"id": 397, "lat": 48.1911, "lon": 15.657868, "name": "Stattersdorf", "turbines": 4, "mw_per_turbine": 0.6, "total_mw": 2.4, "year": 2005, "info": "Type: Enercon, E40/6.44 - Nabenh\u00f6he: 112, Rotordurchmesser: 44", "households": "Dieser Windpark liefert Strom f\u00fcr ca. 1368 Haushalte."}, {"id": 397, "lat": 48.18847, "lon": 15.657983, "name": "Stattersdorf", "turbines": 4, "mw_per_turbine": 0.6, "total_mw": 2.4, "year": 2005, "info": "Type: Enercon, E40/6.44 - Nabenh\u00f6he: 112, Rotordurchmesser: 44", "households": "Dieser Windpark liefert Strom f\u00fcr ca. 1368 Haushalte."}, {"id": 397, "lat": 48.185372, "lon": 15.658885, "name": "Stattersdorf", "turbines": 4, "mw_per_turbine": 0.6, "total_mw": 2.4, "year": 2005, "info": "Type: Enercon, E40/6.44 - Nabenh\u00f6he: 112, Rotordurchmesser: 44", "households": "Dieser Windpark liefert Strom f\u00fcr ca. 1368 Haushalte."}, {"id": 586, "lat": 47.539609, "lon": 15.728024, "name": "Steinriegel", "turbines": 10, "mw_per_turbine": 1.3, "total_mw": 13.0, "year": 2005, "info": "Type: Siemens, Bonus 1300 - Nabenh\u00f6he: 149, Rotordurchmesser: 62", "households": "Dieser Windpark liefert Strom f\u00fcr ca. 7410 Haushalte."}, {"id": 586, "lat": 47.538877, "lon": 15.725775, "name": "Steinriegel", "turbines": 10, "mw_per_turbine": 1.3, "total_mw": 13.0, "year": 2005, "info": "Type: Siemens, Bonus 1300 - Nabenh\u00f6he: 149, Rotordurchmesser: 62", "households": "Dieser Windpark liefert Strom f\u00fcr ca. 7410 Haushalte."}, {"id": 586, "lat": 47.537832, "lon": 15.723648, "name": "Steinriegel", "turbines": 10, "mw_per_turbine": 1.3, "total_mw": 13.0, "year": 2005, "info": "Type: Siemens, Bonus 1300 - Nabenh\u00f6he: 149, Rotordurchmesser: 62", "households": "Dieser Windpark liefert Strom f\u00fcr ca. 7410 Haushalte."}, {"id": 586, "lat": 47.536786, "lon": 15.721602, "name": "Steinriegel", "turbines": 10, "mw_per_turbine": 1.3, "total_mw": 13.0, "year": 2005, "info": "Type: Siemens, Bonus 1300 - Nabenh\u00f6he: 149, Rotordurchmesser: 62", "households": "Dieser Windpark liefert Strom f\u00fcr ca. 7410 Haushalte."}, {"id": 586, "lat": 47.53576, "lon": 15.719648, "name": "Steinriegel", "turbines": 10, "mw_per_turbine": 1.3, "total_mw": 13.0, "year": 2005, "info": "Type: Siemens, Bonus 1300 - Nabenh\u00f6he: 149, Rotordurchmesser: 62", "households": "Dieser Windpark liefert Strom f\u00fcr ca. 7410 Haushalte."}, {"id": 586, "lat": 47.53459, "lon": 15.717856, "name": "Steinriegel", "turbines": 10, "mw_per_turbine": 1.3, "total_mw": 13.0, "year": 2005, "info": "Type: Siemens, Bonus 1300 - Nabenh\u00f6he: 149, Rotordurchmesser: 62", "households": "Dieser Windpark liefert Strom f\u00fcr ca. 7410 Haushalte."}, {"id": 586, "lat": 47.532958, "lon": 15.717131, "name": "Steinriegel", "turbines": 10, "mw_per_turbine": 1.3, "total_mw": 13.0, "year": 2005, "info": "Type: Siemens, Bonus 1300 - Nabenh\u00f6he: 149, Rotordurchmesser: 62", "households": "Dieser Windpark liefert Strom f\u00fcr ca. 7410 Haushalte."}, {"id": 586, "lat": 47.531128, "lon": 15.716382, "name": "Steinriegel", "turbines": 10, "mw_per_turbine": 1.3, "total_mw": 13.0, "year": 2005, "info": "Type: Siemens, Bonus 1300 - Nabenh\u00f6he: 149, Rotordurchmesser: 62", "households": "Dieser Windpark liefert Strom f\u00fcr ca. 7410 Haushalte."}, {"id": 586, "lat": 47.529833, "lon": 15.714817, "name": "Steinriegel", "turbines": 10, "mw_per_turbine": 1.3, "total_mw": 13.0, "year": 2005, "info": "Type: Siemens, Bonus 1300 - Nabenh\u00f6he: 149, Rotordurchmesser: 62", "households": "Dieser Windpark liefert Strom f\u00fcr ca. 7410 Haushalte."}, {"id": 586, "lat": 47.528601, "lon": 15.713145, "name": "Steinriegel", "turbines": 10, "mw_per_turbine": 1.3, "total_mw": 13.0, "year": 2005, "info": "Type: Siemens, Bonus 1300 - Nabenh\u00f6he: 149, Rotordurchmesser: 62", "households": "Dieser Windpark liefert Strom f\u00fcr ca. 7410 Haushalte."}, {"id": 382, "lat": 48.581042, "lon": 14.210244, "name": "Sternwald II", "turbines": 6, "mw_per_turbine": 2, "total_mw": 12, "year": 2005, "info": "Type: Vestas, V90/2000 - Nabenh\u00f6he: 98, Rotordurchmesser: 90", "households": "Dieser Windpark liefert Strom f\u00fcr ca. 6840 Haushalte."}, {"id": 382, "lat": 48.579481, "lon": 14.237611, "name": "Sternwald II", "turbines": 6, "mw_per_turbine": 2, "total_mw": 12, "year": 2005, "info": "Type: Vestas, V90/2000 - Nabenh\u00f6he: 98, Rotordurchmesser: 90", "households": "Dieser Windpark liefert Strom f\u00fcr ca. 6840 Haushalte."}, {"id": 382, "lat": 48.579406, "lon": 14.216733, "name": "Sternwald II", "turbines": 6, "mw_per_turbine": 2, "total_mw": 12, "year": 2005, "info": "Type: Vestas, V90/2000 - Nabenh\u00f6he: 98, Rotordurchmesser: 90", "households": "Dieser Windpark liefert Strom f\u00fcr ca. 6840 Haushalte."}, {"id": 382, "lat": 48.582056, "lon": 14.227117, "name": "Sternwald II", "turbines": 6, "mw_per_turbine": 2, "total_mw": 12, "year": 2005, "info": "Type: Vestas, V90/2000 - Nabenh\u00f6he: 98, Rotordurchmesser: 90", "households": "Dieser Windpark liefert Strom f\u00fcr ca. 6840 Haushalte."}, {"id": 382, "lat": 48.578581, "lon": 14.230144, "name": "Sternwald II", "turbines": 6, "mw_per_turbine": 2, "total_mw": 12, "year": 2005, "info": "Type: Vestas, V90/2000 - Nabenh\u00f6he: 98, Rotordurchmesser: 90", "households": "Dieser Windpark liefert Strom f\u00fcr ca. 6840 Haushalte."}, {"id": 382, "lat": 48.578803, "lon": 14.222736, "name": "Sternwald II", "turbines": 6, "mw_per_turbine": 2, "total_mw": 12, "year": 2005, "info": "Type: Vestas, V90/2000 - Nabenh\u00f6he: 98, Rotordurchmesser: 90", "households": "Dieser Windpark liefert Strom f\u00fcr ca. 6840 Haushalte."}, {"id": 590, "lat": 48.122216, "lon": 16.412585, "name": "Unterlaa", "turbines": 4, "mw_per_turbine": 1, "total_mw": 4, "year": 2005, "info": "Type: Siemens, Bonus 1000 - Nabenh\u00f6he: 99, Rotordurchmesser: 54", "households": "Dieser Windpark liefert Strom f\u00fcr ca. 2280 Haushalte."}, {"id": 590, "lat": 48.12464848, "lon": 16.41151398, "name": "Unterlaa", "turbines": 4, "mw_per_turbine": 1, "total_mw": 4, "year": 2005, "info": "Type: Siemens, Bonus 1000 - Nabenh\u00f6he: 99, Rotordurchmesser: 54", "households": "Dieser Windpark liefert Strom f\u00fcr ca. 2280 Haushalte."}, {"id": 590, "lat": 48.12439264, "lon": 16.42927141, "name": "Unterlaa", "turbines": 4, "mw_per_turbine": 1, "total_mw": 4, "year": 2005, "info": "Type: Siemens, Bonus 1000 - Nabenh\u00f6he: 99, Rotordurchmesser: 54", "households": "Dieser Windpark liefert Strom f\u00fcr ca. 2280 Haushalte."}, {"id": 590, "lat": 48.12642, "lon": 16.432466, "name": "Unterlaa", "turbines": 4, "mw_per_turbine": 1, "total_mw": 4, "year": 2005, "info": "Type: Siemens, Bonus 1000 - Nabenh\u00f6he: 99, Rotordurchmesser: 54", "households": "Dieser Windpark liefert Strom f\u00fcr ca. 2280 Haushalte."}, {"id": 387, "lat": 48.545165, "lon": 16.709327, "name": "Zistersdorf-Maustrenk", "turbines": 6, "mw_per_turbine": 2, "total_mw": 12, "year": 2005, "info": "Type: Vestas, V90/2000 - Nabenh\u00f6he: 105, Rotordurchmesser: 90", "households": "Dieser Windpark liefert Strom f\u00fcr ca. 6840 Haushalte."}, {"id": 387, "lat": 48.548245, "lon": 16.711399, "name": "Zistersdorf-Maustrenk", "turbines": 6, "mw_per_turbine": 2, "total_mw": 12, "year": 2005, "info": "Type: Vestas, V90/2000 - Nabenh\u00f6he: 105, Rotordurchmesser: 90", "households": "Dieser Windpark liefert Strom f\u00fcr ca. 6840 Haushalte."}, {"id": 387, "lat": 48.550793, "lon": 16.714366, "name": "Zistersdorf-Maustrenk", "turbines": 6, "mw_per_turbine": 2, "total_mw": 12, "year": 2005, "info": "Type: Vestas, V90/2000 - Nabenh\u00f6he: 105, Rotordurchmesser: 90", "households": "Dieser Windpark liefert Strom f\u00fcr ca. 6840 Haushalte."}, {"id": 387, "lat": 48.555348, "lon": 16.710148, "name": "Zistersdorf-Maustrenk", "turbines": 6, "mw_per_turbine": 2, "total_mw": 12, "year": 2005, "info": "Type: Vestas, V90/2000 - Nabenh\u00f6he: 105, Rotordurchmesser: 90", "households": "Dieser Windpark liefert Strom f\u00fcr ca. 6840 Haushalte."}, {"id": 387, "lat": 48.551282, "lon": 16.706832, "name": "Zistersdorf-Maustrenk", "turbines": 6, "mw_per_turbine": 2, "total_mw": 12, "year": 2005, "info": "Type: Vestas, V90/2000 - Nabenh\u00f6he: 105, Rotordurchmesser: 90", "households": "Dieser Windpark liefert Strom f\u00fcr ca. 6840 Haushalte."}, {"id": 387, "lat": 48.542845, "lon": 16.70675, "name": "Zistersdorf-Maustrenk", "turbines": 6, "mw_per_turbine": 2, "total_mw": 12, "year": 2005, "info": "Type: Vestas, V90/2000 - Nabenh\u00f6he: 105, Rotordurchmesser: 90", "households": "Dieser Windpark liefert Strom f\u00fcr ca. 6840 Haushalte."}, {"id": 406, "lat": 47.97041, "lon": 16.9779, "name": "Zurndorf neu", "turbines": 3, "mw_per_turbine": 2, "total_mw": 6, "year": 2005, "info": "Type: Enercon, E70 E4 - Nabenh\u00f6he: 105, Rotordurchmesser: 71", "households": "Dieser Windpark liefert Strom f\u00fcr ca. 3420 Haushalte."}, {"id": 406, "lat": 47.96608, "lon": 16.98656, "name": "Zurndorf neu", "turbines": 3, "mw_per_turbine": 2, "total_mw": 6, "year": 2005, "info": "Type: Enercon, E70 E4 - Nabenh\u00f6he: 105, Rotordurchmesser: 71", "households": "Dieser Windpark liefert Strom f\u00fcr ca. 3420 Haushalte."}, {"id": 406, "lat": 47.97412, "lon": 16.98391, "name": "Zurndorf neu", "turbines": 3, "mw_per_turbine": 2, "total_mw": 6, "year": 2005, "info": "Type: Enercon, E70 E4 - Nabenh\u00f6he: 105, Rotordurchmesser: 71", "households": "Dieser Windpark liefert Strom f\u00fcr ca. 3420 Haushalte."}, {"id": 413, "lat": 48.347494, "lon": 16.644528, "name": "Auersthal", "turbines": 10, "mw_per_turbine": 2, "total_mw": 20, "year": 2006, "info": "Type: Vestas, V90/2000 - Nabenh\u00f6he: 60, Rotordurchmesser: 90", "households": "Dieser Windpark liefert Strom f\u00fcr ca. 11400 Haushalte."}, {"id": 413, "lat": 48.348661, "lon": 16.634183, "name": "Auersthal", "turbines": 10, "mw_per_turbine": 2, "total_mw": 20, "year": 2006, "info": "Type: Vestas, V90/2000 - Nabenh\u00f6he: 60, Rotordurchmesser: 90", "households": "Dieser Windpark liefert Strom f\u00fcr ca. 11400 Haushalte."}, {"id": 413, "lat": 48.344078, "lon": 16.633193, "name": "Auersthal", "turbines": 10, "mw_per_turbine": 2, "total_mw": 20, "year": 2006, "info": "Type: Vestas, V90/2000 - Nabenh\u00f6he: 60, Rotordurchmesser: 90", "households": "Dieser Windpark liefert Strom f\u00fcr ca. 11400 Haushalte."}, {"id": 413, "lat": 48.340642, "lon": 16.632088, "name": "Auersthal", "turbines": 10, "mw_per_turbine": 2, "total_mw": 20, "year": 2006, "info": "Type: Vestas, V90/2000 - Nabenh\u00f6he: 60, Rotordurchmesser: 90", "households": "Dieser Windpark liefert Strom f\u00fcr ca. 11400 Haushalte."}, {"id": 413, "lat": 48.342748, "lon": 16.645182, "name": "Auersthal", "turbines": 10, "mw_per_turbine": 2, "total_mw": 20, "year": 2006, "info": "Type: Vestas, V90/2000 - Nabenh\u00f6he: 60, Rotordurchmesser: 90", "households": "Dieser Windpark liefert Strom f\u00fcr ca. 11400 Haushalte."}, {"id": 413, "lat": 48.346028, "lon": 16.654822, "name": "Auersthal", "turbines": 10, "mw_per_turbine": 2, "total_mw": 20, "year": 2006, "info": "Type: Vestas, V90/2000 - Nabenh\u00f6he: 60, Rotordurchmesser: 90", "households": "Dieser Windpark liefert Strom f\u00fcr ca. 11400 Haushalte."}, {"id": 413, "lat": 48.352499, "lon": 16.66514, "name": "Auersthal", "turbines": 10, "mw_per_turbine": 2, "total_mw": 20, "year": 2006, "info": "Type: Vestas, V90/2000 - Nabenh\u00f6he: 60, Rotordurchmesser: 90", "households": "Dieser Windpark liefert Strom f\u00fcr ca. 11400 Haushalte."}, {"id": 413, "lat": 48.356449, "lon": 16.666535, "name": "Auersthal", "turbines": 10, "mw_per_turbine": 2, "total_mw": 20, "year": 2006, "info": "Type: Vestas, V90/2000 - Nabenh\u00f6he: 60, Rotordurchmesser: 90", "households": "Dieser Windpark liefert Strom f\u00fcr ca. 11400 Haushalte."}, {"id": 413, "lat": 48.356712, "lon": 16.654519, "name": "Auersthal", "turbines": 10, "mw_per_turbine": 2, "total_mw": 20, "year": 2006, "info": "Type: Vestas, V90/2000 - Nabenh\u00f6he: 60, Rotordurchmesser: 90", "households": "Dieser Windpark liefert Strom f\u00fcr ca. 11400 Haushalte."}, {"id": 413, "lat": 48.35201, "lon": 16.652204, "name": "Auersthal", "turbines": 10, "mw_per_turbine": 2, "total_mw": 20, "year": 2006, "info": "Type: Vestas, V90/2000 - Nabenh\u00f6he: 60, Rotordurchmesser: 90", "households": "Dieser Windpark liefert Strom f\u00fcr ca. 11400 Haushalte."}, {"id": 411, "lat": 47.09858, "lon": 14.918538, "name": "Gaberl", "turbines": 2, "mw_per_turbine": 0.8, "total_mw": 1.6, "year": 2006, "info": "Type: Enercon, E48 - Nabenh\u00f6he: 100, Rotordurchmesser: 48", "households": "Dieser Windpark liefert Strom f\u00fcr ca. 912 Haushalte."}, {"id": 411, "lat": 47.097344, "lon": 14.919006, "name": "Gaberl", "turbines": 2, "mw_per_turbine": 0.8, "total_mw": 1.6, "year": 2006, "info": "Type: Enercon, E48 - Nabenh\u00f6he: 100, Rotordurchmesser: 48", "households": "Dieser Windpark liefert Strom f\u00fcr ca. 912 Haushalte."}, {"id": 420, "lat": 48.36744502, "lon": 16.74257252, "name": "G\u00e4nserndorf Nord", "turbines": 5, "mw_per_turbine": 1.8, "total_mw": 9.0, "year": 2006, "info": "Type: Enercon, E70 E4 - Nabenh\u00f6he: 86, Rotordurchmesser: 71", "households": "Dieser Windpark liefert Strom f\u00fcr ca. 5130 Haushalte."}, {"id": 420, "lat": 48.36988516, "lon": 16.74425207, "name": "G\u00e4nserndorf Nord", "turbines": 5, "mw_per_turbine": 1.8, "total_mw": 9.0, "year": 2006, "info": "Type: Enercon, E70 E4 - Nabenh\u00f6he: 86, Rotordurchmesser: 71", "households": "Dieser Windpark liefert Strom f\u00fcr ca. 5130 Haushalte."}, {"id": 420, "lat": 48.36019432, "lon": 16.7355382, "name": "G\u00e4nserndorf Nord", "turbines": 5, "mw_per_turbine": 1.8, "total_mw": 9.0, "year": 2006, "info": "Type: Enercon, E70 E4 - Nabenh\u00f6he: 86, Rotordurchmesser: 71", "households": "Dieser Windpark liefert Strom f\u00fcr ca. 5130 Haushalte."}, {"id": 420, "lat": 48.3566123, "lon": 16.72320413, "name": "G\u00e4nserndorf Nord", "turbines": 5, "mw_per_turbine": 1.8, "total_mw": 9.0, "year": 2006, "info": "Type: Enercon, E70 E4 - Nabenh\u00f6he: 86, Rotordurchmesser: 71", "households": "Dieser Windpark liefert Strom f\u00fcr ca. 5130 Haushalte."}, {"id": 420, "lat": 48.36376849, "lon": 16.73956078, "name": "G\u00e4nserndorf Nord", "turbines": 5, "mw_per_turbine": 1.8, "total_mw": 9.0, "year": 2006, "info": "Type: Enercon, E70 E4 - Nabenh\u00f6he: 86, Rotordurchmesser: 71", "households": "Dieser Windpark liefert Strom f\u00fcr ca. 5130 Haushalte."}, {"id": 419, "lat": 48.283333, "lon": 15.662222, "name": "Hoher K\u00f6lbling", "turbines": 6, "mw_per_turbine": 1.8, "total_mw": 10.8, "year": 2006, "info": "Type: Enercon, E70 E4 - Nabenh\u00f6he: 65, Rotordurchmesser: 71", "households": "Dieser Windpark liefert Strom f\u00fcr ca. 6156 Haushalte."}, {"id": 419, "lat": 48.281667, "lon": 15.662222, "name": "Hoher K\u00f6lbling", "turbines": 6, "mw_per_turbine": 1.8, "total_mw": 10.8, "year": 2006, "info": "Type: Enercon, E70 E4 - Nabenh\u00f6he: 65, Rotordurchmesser: 71", "households": "Dieser Windpark liefert Strom f\u00fcr ca. 6156 Haushalte."}, {"id": 419, "lat": 48.278889, "lon": 15.661944, "name": "Hoher K\u00f6lbling", "turbines": 6, "mw_per_turbine": 1.8, "total_mw": 10.8, "year": 2006, "info": "Type: Enercon, E70 E4 - Nabenh\u00f6he: 65, Rotordurchmesser: 71", "households": "Dieser Windpark liefert Strom f\u00fcr ca. 6156 Haushalte."},